{"type":"FeatureCollection","totalFeatures":12973,"features":[{"type":"Feature","id":"hydroweb.1","geometry":{"type":"Point","coordinates":[-98.88,64.55]},"geometry_name":"the_geom","properties":{"name":"L_aberdeen","lon":-98.88,"lat":64.55,"river":"","lake":"aberdeen","basin":"Thelon","status":"research","validation":""}},{"type":"Feature","id":"hydroweb.2","geometry":{"type":"Point","coordinates":[41.8,11.2]},"geometry_name":"the_geom","properties":{"name":"L_abhe","lon":41.8,"lat":11.2,"river":"","lake":"abhe","basin":"GreatRiftValley","status":"research","validation":""}},{"type":"Feature","id":"hydroweb.3","geometry":{"type":"Point","coordinates":[-79.91,48.76]},"geometry_name":"the_geom","properties":{"name":"L_abitibi","lon":-79.91,"lat":48.76,"river":"","lake":"abitibi","basin":"Moose","status":"research","validation":""}},{"type":"Feature","id":"hydroweb.4","geometry":{"type":"Point","coordinates":[90.51,49.5]},"geometry_name":"the_geom","properties":{"name":"L_achit","lon":90.51,"lat":49.5,"river":"","lake":"achit","basin":"Achit","status":"operational","validation":""}},{"type":"Feature","id":"hydroweb.5","geometry":{"type":"Point","coordinates":[-62.21,-4.45]},"geometry_name":"the_geom","properties":{"name":"L_aiapua","lon":-62.21,"lat":-4.45,"river":"","lake":"aiapua","basin":"Amazonas","status":"research","validation":""}},{"type":"Feature","id":"hydroweb.6","geometry":{"type":"Point","coordinates":[93.5,48.9]},"geometry_name":"the_geom","properties":{"name":"L_airag","lon":93.5,"lat":48.9,"river":"","lake":"airag","basin":"Mongolian","status":"research","validation":""}},{"type":"Feature","id":"hydroweb.7","geometry":{"type":"Point","coordinates":[79.85,35.2]},"geometry_name":"the_geom","properties":{"name":"L_aksayqin","lon":79.85,"lat":35.2,"river":"","lake":"aksayqin","basin":"Tarim","status":"research","validation":""}},{"type":"Feature","id":"hydroweb.8","geometry":{"type":"Point","coordinates":[81.75,46.12]},"geometry_name":"the_geom","properties":{"name":"L_alakol","lon":81.75,"lat":46.12,"river":"","lake":"alakol","basin":"Mongolian","status":"operational","validation":""}},{"type":"Feature","id":"hydroweb.9","geometry":{"type":"Point","coordinates":[48.54,-17.48]},"geometry_name":"the_geom","properties":{"name":"L_alaotra","lon":48.54,"lat":-17.48,"river":"","lake":"alaotra","basin":"Alaotra","status":"research","validation":""}},{"type":"Feature","id":"hydroweb.10","geometry":{"type":"Point","coordinates":[30.92,1.67]},"geometry_name":"the_geom","properties":{"name":"L_albert","lon":30.92,"lat":1.67,"river":"","lake":"albert","basin":"Nile","status":"operational","validation":""}},{"type":"Feature","id":"hydroweb.11","geometry":{"type":"Point","coordinates":[-71.1,64.92]},"geometry_name":"the_geom","properties":{"name":"L_amadjuak","lon":-71.1,"lat":64.92,"river":"","lake":"amadjuak","basin":"Hudsonbay","status":"research","validation":""}},{"type":"Feature","id":"hydroweb.12","geometry":{"type":"Point","coordinates":[-112.75,42.92]},"geometry_name":"the_geom","properties":{"name":"L_americanfalls","lon":-112.75,"lat":42.92,"river":"","lake":"americanfalls","basin":"Columbia","status":"operational","validation":""}},{"type":"Feature","id":"hydroweb.13","geometry":{"type":"Point","coordinates":[-100.04,62.27]},"geometry_name":"the_geom","properties":{"name":"L_angikuni","lon":-100.04,"lat":62.27,"river":"","lake":"angikuni","basin":"Thelon","status":"research","validation":""}},{"type":"Feature","id":"hydroweb.14","geometry":{"type":"Point","coordinates":[-92.5,16.08]},"geometry_name":"the_geom","properties":{"name":"L_angostura","lon":-92.5,"lat":16.08,"river":"","lake":"angostura","basin":"Grisalva","status":"research","validation":""}},{"type":"Feature","id":"hydroweb.15","geometry":{"type":"Point","coordinates":[88.42,37.09]},"geometry_name":"the_geom","properties":{"name":"L_aqqikol-hu","lon":88.42,"lat":37.09,"river":"","lake":"aqqikol-hu","basin":"Mongolian","status":"operational","validation":""}},{"type":"Feature","id":"hydroweb.16","geometry":{"type":"Point","coordinates":[60,45]},"geometry_name":"the_geom","properties":{"name":"L_aral_est","lon":60,"lat":45,"river":"","lake":"aral_est","basin":"Aral-Drainage","status":"research","validation":""}},{"type":"Feature","id":"hydroweb.17","geometry":{"type":"Point","coordinates":[60.8,46.4]},"geometry_name":"the_geom","properties":{"name":"L_aral_nord","lon":60.8,"lat":46.4,"river":"","lake":"aral_nord","basin":"Aral-Drainage","status":"research","validation":""}},{"type":"Feature","id":"hydroweb.18","geometry":{"type":"Point","coordinates":[58.5,45]},"geometry_name":"the_geom","properties":{"name":"L_aral_ouest","lon":58.5,"lat":45,"river":"","lake":"aral_ouest","basin":"Aral-Drainage","status":"research","validation":""}},{"type":"Feature","id":"hydroweb.19","geometry":{"type":"Point","coordinates":[59,46.3]},"geometry_name":"the_geom","properties":{"name":"L_aral_sud","lon":59,"lat":46.3,"river":"","lake":"aral_sud","basin":"Aral-Drainage","status":"research","validation":""}},{"type":"Feature","id":"hydroweb.20","geometry":{"type":"Point","coordinates":[-70.02,-15.16]},"geometry_name":"the_geom","properties":{"name":"L_arapa","lon":-70.02,"lat":-15.16,"river":"","lake":"arapa","basin":"Desaguadero","status":"research","validation":""}},{"type":"Feature","id":"hydroweb.21","geometry":{"type":"Point","coordinates":[-72.75,-50.33]},"geometry_name":"the_geom","properties":{"name":"L_argentino","lon":-72.75,"lat":-50.33,"river":"","lake":"argentino","basin":"Santa-Cruz","status":"operational","validation":""}},{"type":"Feature","id":"hydroweb.22","geometry":{"type":"Point","coordinates":[128.77,-16.31]},"geometry_name":"the_geom","properties":{"name":"L_argyle","lon":128.77,"lat":-16.31,"river":"","lake":"argyle","basin":"Ord","status":"research","validation":""}},{"type":"Feature","id":"hydroweb.23","geometry":{"type":"Point","coordinates":[38.17,36]},"geometry_name":"the_geom","properties":{"name":"L_asad","lon":38.17,"lat":36,"river":"","lake":"asad","basin":"Tigris-Euphrates","status":"research","validation":""}},{"type":"Feature","id":"hydroweb.24","geometry":{"type":"Point","coordinates":[-110,59.1]},"geometry_name":"the_geom","properties":{"name":"L_athabasca","lon":-110,"lat":59.1,"river":"","lake":"athabasca","basin":"Mackenzie River","status":"operational","validation":""}},{"type":"Feature","id":"hydroweb.25","geometry":{"type":"Point","coordinates":[-64.48,52.71]},"geometry_name":"the_geom","properties":{"name":"L_atikonak","lon":-64.48,"lat":52.71,"river":"","lake":"atikonak","basin":"Churchill-labrador","status":"research","validation":""}},{"type":"Feature","id":"hydroweb.26","geometry":{"type":"Point","coordinates":[-91.2,14.68]},"geometry_name":"the_geom","properties":{"name":"L_atitla","lon":-91.2,"lat":14.68,"river":"","lake":"atitla","basin":"Atitla","status":"research","validation":""}},{"type":"Feature","id":"hydroweb.27","geometry":{"type":"Point","coordinates":[-133.87,59.56]},"geometry_name":"the_geom","properties":{"name":"L_atlin","lon":-133.87,"lat":59.56,"river":"","lake":"atlin","basin":"Yukon River","status":"research","validation":""}},{"type":"Feature","id":"hydroweb.28","geometry":{"type":"Point","coordinates":[-126.45,67.42]},"geometry_name":"the_geom","properties":{"name":"L_aubry","lon":-126.45,"lat":67.42,"river":"","lake":"aubry","basin":"Anderson River","status":"research","validation":""}},{"type":"Feature","id":"hydroweb.29","geometry":{"type":"Point","coordinates":[89.4,37.54]},"geometry_name":"the_geom","properties":{"name":"L_ayakkum","lon":89.4,"lat":37.54,"river":"","lake":"ayakkum","basin":"Mongolian","status":"operational","validation":""}},{"type":"Feature","id":"hydroweb.30","geometry":{"type":"Point","coordinates":[-3.21,5.67]},"geometry_name":"the_geom","properties":{"name":"L_ayame","lon":-3.21,"lat":5.67,"river":"","lake":"ayame","basin":"Bia","status":"research","validation":""}},{"type":"Feature","id":"hydroweb.31","geometry":{"type":"Point","coordinates":[67.04,40.87]},"geometry_name":"the_geom","properties":{"name":"L_aydarkul","lon":67.04,"lat":40.87,"river":"","lake":"aydarkul","basin":"Aral-Drainage","status":"operational","validation":""}},{"type":"Feature","id":"hydroweb.32","geometry":{"type":"Point","coordinates":[-108.54,64.09]},"geometry_name":"the_geom","properties":{"name":"L_aylmer","lon":-108.54,"lat":64.09,"river":"","lake":"aylmer","basin":"Back River","status":"operational","validation":""}},{"type":"Feature","id":"hydroweb.33","geometry":{"type":"Point","coordinates":[68.39,50.14]},"geometry_name":"the_geom","properties":{"name":"L_azhibeksorkoli","lon":68.39,"lat":50.14,"river":"","lake":"azhibeksorkoli","basin":"Ob","status":"operational","validation":""}},{"type":"Feature","id":"hydroweb.34","geometry":{"type":"Point","coordinates":[0.62,11.15]},"geometry_name":"the_geom","properties":{"name":"L_bagre","lon":0.62,"lat":11.15,"river":"","lake":"bagre","basin":"Volta","status":"operational","validation":""}},{"type":"Feature","id":"hydroweb.35","geometry":{"type":"Point","coordinates":[108.17,53.58]},"geometry_name":"the_geom","properties":{"name":"L_baikal","lon":108.17,"lat":53.58,"river":"","lake":"baikal","basin":"Yenisei","status":"operational","validation":""}},{"type":"Feature","id":"hydroweb.36","geometry":{"type":"Point","coordinates":[83.13,35.04]},"geometry_name":"the_geom","properties":{"name":"L_bairab","lon":83.13,"lat":35.04,"river":"","lake":"bairab","basin":"Tarim","status":"operational","validation":""}},{"type":"Feature","id":"hydroweb.37","geometry":{"type":"Point","coordinates":[-95,64]},"geometry_name":"the_geom","properties":{"name":"L_baker","lon":-95,"lat":64,"river":"","lake":"baker","basin":"Thelon","status":"operational","validation":""}},{"type":"Feature","id":"hydroweb.38","geometry":{"type":"Point","coordinates":[17.71,46.88]},"geometry_name":"the_geom","properties":{"name":"L_balaton","lon":17.71,"lat":46.88,"river":"","lake":"balaton","basin":"Danube","status":"research","validation":""}},{"type":"Feature","id":"hydroweb.39","geometry":{"type":"Point","coordinates":[-59.73,-1.58]},"geometry_name":"the_geom","properties":{"name":"L_balbina","lon":-59.73,"lat":-1.58,"river":"","lake":"balbina","basin":"Amazonas","status":"operational","validation":""}},{"type":"Feature","id":"hydroweb.40","geometry":{"type":"Point","coordinates":[74.32,46.3]},"geometry_name":"the_geom","properties":{"name":"L_balkhash","lon":74.32,"lat":46.3,"river":"","lake":"balkhash","basin":"Balkhash","status":"operational","validation":""}},{"type":"Feature","id":"hydroweb.41","geometry":{"type":"Point","coordinates":[10.55,5.8]},"geometry_name":"the_geom","properties":{"name":"L_bamendjin","lon":10.55,"lat":5.8,"river":"","lake":"bamendjin","basin":"Sanaga","status":"research","validation":""}},{"type":"Feature","id":"hydroweb.42","geometry":{"type":"Point","coordinates":[79.48,33.6]},"geometry_name":"the_geom","properties":{"name":"L_bangong","lon":79.48,"lat":33.6,"river":"","lake":"bangong","basin":"Indus","status":"research","validation":""}},{"type":"Feature","id":"hydroweb.43","geometry":{"type":"Point","coordinates":[29.81,-11.17]},"geometry_name":"the_geom","properties":{"name":"L_bangweulu","lon":29.81,"lat":-11.17,"river":"","lake":"bangweulu","basin":"Congo","status":"operational","validation":""}},{"type":"Feature","id":"hydroweb.44","geometry":{"type":"Point","coordinates":[11.36,6.1]},"geometry_name":"the_geom","properties":{"name":"L_bankim","lon":11.36,"lat":6.1,"river":"","lake":"bankim","basin":"Sanaga","status":"operational","validation":""}},{"type":"Feature","id":"hydroweb.45","geometry":{"type":"Point","coordinates":[81.08,24.12]},"geometry_name":"the_geom","properties":{"name":"L_bansagar","lon":81.08,"lat":24.12,"river":"","lake":"bansagar","basin":"Ganges-Brahmaputra","status":"research","validation":""}},{"type":"Feature","id":"hydroweb.46","geometry":{"type":"Point","coordinates":[36.05,0.6]},"geometry_name":"the_geom","properties":{"name":"L_baringo","lon":36.05,"lat":0.6,"river":"","lake":"baringo","basin":"GreatRiftValley","status":"research","validation":""}},{"type":"Feature","id":"hydroweb.47","geometry":{"type":"Point","coordinates":[92.2,22.75]},"geometry_name":"the_geom","properties":{"name":"L_barkal","lon":92.2,"lat":22.75,"river":"","lake":"barkal","basin":"GulfBengal","status":"research","validation":""}},{"type":"Feature","id":"hydroweb.48","geometry":{"type":"Point","coordinates":[-48.92,-23.31]},"geometry_name":"the_geom","properties":{"name":"L_barra-bonita","lon":-48.92,"lat":-23.31,"river":"","lake":"barra-bonita","basin":"Parana","status":"research","validation":""}},{"type":"Feature","id":"hydroweb.49","geometry":{"type":"Point","coordinates":[115.5,50]},"geometry_name":"the_geom","properties":{"name":"L_barun-torey","lon":115.5,"lat":50,"river":"","lake":"barun-torey","basin":"Amur","status":"research","validation":""}},{"type":"Feature","id":"hydroweb.50","geometry":{"type":"Point","coordinates":[-75.86,46.85]},"geometry_name":"the_geom","properties":{"name":"L_baskatong","lon":-75.86,"lat":46.85,"river":"","lake":"baskatong","basin":"St-Lawrence","status":"research","validation":""}},{"type":"Feature","id":"hydroweb.51","geometry":{"type":"Point","coordinates":[41.17,38.2]},"geometry_name":"the_geom","properties":{"name":"L_batman","lon":41.17,"lat":38.2,"river":"","lake":"batman","basin":"Tigris-Euphrates","status":"research","validation":""}},{"type":"Feature","id":"hydroweb.52","geometry":{"type":"Point","coordinates":[113,55.21]},"geometry_name":"the_geom","properties":{"name":"L_baunt","lon":113,"lat":55.21,"river":"","lake":"baunt","basin":"Yenisei","status":"operational","validation":""}},{"type":"Feature","id":"hydroweb.53","geometry":{"type":"Point","coordinates":[21.2,14.3]},"geometry_name":"the_geom","properties":{"name":"L_bay","lon":21.2,"lat":14.3,"river":"","lake":"bay","basin":"Lake-Chad","status":"research","validation":""}},{"type":"Feature","id":"hydroweb.54","geometry":{"type":"Point","coordinates":[-78.67,9.14]},"geometry_name":"the_geom","properties":{"name":"L_bayano","lon":-78.67,"lat":9.14,"river":"","lake":"bayano","basin":"Panama","status":"research","validation":""}},{"type":"Feature","id":"hydroweb.55","geometry":{"type":"Point","coordinates":[76.06,32]},"geometry_name":"the_geom","properties":{"name":"L_beas","lon":76.06,"lat":32,"river":"","lake":"beas","basin":"Indus","status":"operational","validation":""}},{"type":"Feature","id":"hydroweb.56","geometry":{"type":"Point","coordinates":[-112.53,53.45]},"geometry_name":"the_geom","properties":{"name":"L_beaverhill","lon":-112.53,"lat":53.45,"river":"","lake":"beaverhill","basin":"Nelson","status":"research","validation":""}},{"type":"Feature","id":"hydroweb.57","geometry":{"type":"Point","coordinates":[-126.27,66.88]},"geometry_name":"the_geom","properties":{"name":"L_belot","lon":-126.27,"lat":66.88,"river":"","lake":"belot","basin":"Anderson River","status":"research","validation":""}},{"type":"Feature","id":"hydroweb.58","geometry":{"type":"Point","coordinates":[37.63,60.18]},"geometry_name":"the_geom","properties":{"name":"L_beloye","lon":37.63,"lat":60.18,"river":"","lake":"beloye","basin":"Volga","status":"research","validation":""}},{"type":"Feature","id":"hydroweb.59","geometry":{"type":"Point","coordinates":[31.55,37.78]},"geometry_name":"the_geom","properties":{"name":"L_beysehir","lon":31.55,"lat":37.78,"river":"","lake":"beysehir","basin":"Beysehir","status":"operational","validation":""}},{"type":"Feature","id":"hydroweb.60","geometry":{"type":"Point","coordinates":[-112.06,54.87]},"geometry_name":"the_geom","properties":{"name":"L_biche","lon":-112.06,"lat":54.87,"river":"","lake":"biche","basin":"MacKenzie River","status":"research","validation":""}},{"type":"Feature","id":"hydroweb.61","geometry":{"type":"Point","coordinates":[-72.65,55.13]},"geometry_name":"the_geom","properties":{"name":"L_bienville","lon":-72.65,"lat":55.13,"river":"","lake":"bienville","basin":"Grande Riviere De La Baleine","status":"operational","validation":""}},{"type":"Feature","id":"hydroweb.62","geometry":{"type":"Point","coordinates":[-90.01,53.78]},"geometry_name":"the_geom","properties":{"name":"L_big-trout","lon":-90.01,"lat":53.78,"river":"","lake":"big-trout","basin":"Severn","status":"operational","validation":""}},{"type":"Feature","id":"hydroweb.63","geometry":{"type":"Point","coordinates":[-121.61,64.62]},"geometry_name":"the_geom","properties":{"name":"L_birch","lon":-121.61,"lat":64.62,"river":"","lake":"birch","basin":"Mackenzie River","status":"operational","validation":""}},{"type":"Feature","id":"hydroweb.64","geometry":{"type":"Point","coordinates":[-118.83,59.74]},"geometry_name":"the_geom","properties":{"name":"L_bistcho","lon":-118.83,"lat":59.74,"river":"","lake":"bistcho","basin":"MacKenzie River","status":"research","validation":""}},{"type":"Feature","id":"hydroweb.65","geometry":{"type":"Point","coordinates":[136.07,35.25]},"geometry_name":"the_geom","properties":{"name":"L_biwa-ko","lon":136.07,"lat":35.25,"river":"","lake":"biwa-ko","basin":"Yodo","status":"research","validation":""}},{"type":"Feature","id":"hydroweb.66","geometry":{"type":"Point","coordinates":[70.69,43.04]},"geometry_name":"the_geom","properties":{"name":"L_biylikol","lon":70.69,"lat":43.04,"river":"","lake":"biylikol","basin":"Issyk-Kul","status":"operational","validation":""}},{"type":"Feature","id":"hydroweb.67","geometry":{"type":"Point","coordinates":[-119.7,68.35]},"geometry_name":"the_geom","properties":{"name":"L_bluenose","lon":-119.7,"lat":68.35,"river":"","lake":"bluenose","basin":"Arcticocean","status":"operational","validation":""}},{"type":"Feature","id":"hydroweb.68","geometry":{"type":"Point","coordinates":[9.4,47.6]},"geometry_name":"the_geom","properties":{"name":"L_bodensee","lon":9.4,"lat":47.6,"river":"","lake":"bodensee","basin":"Rhine","status":"operational","validation":""}},{"type":"Feature","id":"hydroweb.69","geometry":{"type":"Point","coordinates":[36.1,0.25]},"geometry_name":"the_geom","properties":{"name":"L_bogoria","lon":36.1,"lat":0.25,"river":"","lake":"bogoria","basin":"Greatriftvalley","status":"operational","validation":""}},{"type":"Feature","id":"hydroweb.70","geometry":{"type":"Point","coordinates":[13.68,56.85]},"geometry_name":"the_geom","properties":{"name":"L_bolmen","lon":13.68,"lat":56.85,"river":"","lake":"bolmen","basin":"Bolmen","status":"research","validation":""}},{"type":"Feature","id":"hydroweb.71","geometry":{"type":"Point","coordinates":[136.38,48.84]},"geometry_name":"the_geom","properties":{"name":"L_bolon","lon":136.38,"lat":48.84,"river":"","lake":"bolon","basin":"Amur","status":"research","validation":""}},{"type":"Feature","id":"hydroweb.72","geometry":{"type":"Point","coordinates":[87,42]},"geometry_name":"the_geom","properties":{"name":"L_bosten","lon":87,"lat":42,"river":"","lake":"bosten","basin":"Tarim","status":"operational","validation":""}},{"type":"Feature","id":"hydroweb.73","geometry":{"type":"Point","coordinates":[102.11,56.11]},"geometry_name":"the_geom","properties":{"name":"L_bratskoye","lon":102.11,"lat":56.11,"river":"","lake":"bratskoye","basin":"Yenisei","status":"operational","validation":""}},{"type":"Feature","id":"hydroweb.74","geometry":{"type":"Point","coordinates":[-115.49,60.23]},"geometry_name":"the_geom","properties":{"name":"L_buffalo","lon":-115.49,"lat":60.23,"river":"","lake":"buffalo","basin":"MacKenzie River","status":"research","validation":""}},{"type":"Feature","id":"hydroweb.75","geometry":{"type":"Point","coordinates":[69.07,42.74]},"geometry_name":"the_geom","properties":{"name":"L_bugunskoye","lon":69.07,"lat":42.74,"river":"","lake":"bugunskoye","basin":"Aral-Drainage","status":"operational","validation":""}},{"type":"Feature","id":"hydroweb.76","geometry":{"type":"Point","coordinates":[-2.32,8.4]},"geometry_name":"the_geom","properties":{"name":"L_bui","lon":-2.32,"lat":8.4,"river":"","lake":"bui","basin":"Volta","status":"research","validation":""}},{"type":"Feature","id":"hydroweb.77","geometry":{"type":"Point","coordinates":[146.97,-20.74]},"geometry_name":"the_geom","properties":{"name":"L_burdekin","lon":146.97,"lat":-20.74,"river":"","lake":"burdekin","basin":"Burdekin","status":"research","validation":""}},{"type":"Feature","id":"hydroweb.78","geometry":{"type":"Point","coordinates":[30.2,37.73]},"geometry_name":"the_geom","properties":{"name":"L_burdur","lon":30.2,"lat":37.73,"river":"","lake":"burdur","basin":"Burdur","status":"research","validation":""}},{"type":"Feature","id":"hydroweb.79","geometry":{"type":"Point","coordinates":[130.38,50.3]},"geometry_name":"the_geom","properties":{"name":"L_bureyskaya","lon":130.38,"lat":50.3,"river":"","lake":"bureyskaya","basin":"Amur","status":"research","validation":""}},{"type":"Feature","id":"hydroweb.80","geometry":{"type":"Point","coordinates":[-7.07,6.33]},"geometry_name":"the_geom","properties":{"name":"L_buyo","lon":-7.07,"lat":6.33,"river":"","lake":"buyo","basin":"sassandra","status":"research","validation":""}},{"type":"Feature","id":"hydroweb.81","geometry":{"type":"Point","coordinates":[-76.55,47.28]},"geometry_name":"the_geom","properties":{"name":"L_cabonga","lon":-76.55,"lat":47.28,"river":"","lake":"cabonga","basin":"St-Lawrence","status":"research","validation":""}},{"type":"Feature","id":"hydroweb.82","geometry":{"type":"Point","coordinates":[31.78,-15.68]},"geometry_name":"the_geom","properties":{"name":"L_cahora_bassa","lon":31.78,"lat":-15.68,"river":"","lake":"cahora_bassa","basin":"Zambezi","status":"operational","validation":""}},{"type":"Feature","id":"hydroweb.83","geometry":{"type":"Point","coordinates":[-58.3,-3]},"geometry_name":"the_geom","properties":{"name":"L_canacari","lon":-58.3,"lat":-3,"river":"","lake":"canacari","basin":"Amazonas","status":"research","validation":""}},{"type":"Feature","id":"hydroweb.84","geometry":{"type":"Point","coordinates":[-69.81,54.52]},"geometry_name":"the_geom","properties":{"name":"L_caniapiscau","lon":-69.81,"lat":54.52,"river":"","lake":"caniapiscau","basin":"Caniapiscau","status":"research","validation":""}},{"type":"Feature","id":"hydroweb.85","geometry":{"type":"Point","coordinates":[-102.26,57.62]},"geometry_name":"the_geom","properties":{"name":"L_caribou","lon":-102.26,"lat":57.62,"river":"","lake":"caribou","basin":"Churchill","status":"operational","validation":""}},{"type":"Feature","id":"hydroweb.86","geometry":{"type":"Point","coordinates":[-67.42,-38.21]},"geometry_name":"the_geom","properties":{"name":"L_casa_de_piedra","lon":-67.42,"lat":-38.21,"river":"","lake":"casa_de_piedra","basin":"Colorado-01","status":"research","validation":""}},{"type":"Feature","id":"hydroweb.87","geometry":{"type":"Point","coordinates":[50,42]},"geometry_name":"the_geom","properties":{"name":"L_caspian","lon":50,"lat":42,"river":"","lake":"caspian","basin":"Caspian","status":"operational","validation":""}},{"type":"Feature","id":"hydroweb.88","geometry":{"type":"Point","coordinates":[-76.71,42.7]},"geometry_name":"the_geom","properties":{"name":"L_cayuga","lon":-76.71,"lat":42.7,"river":"","lake":"cayuga","basin":"St-Lawrence","status":"operational","validation":""}},{"type":"Feature","id":"hydroweb.89","geometry":{"type":"Point","coordinates":[-100.4,53.4]},"geometry_name":"the_geom","properties":{"name":"L_cedar","lon":-100.4,"lat":53.4,"river":"","lake":"cedar","basin":"Nelson","status":"operational","validation":""}},{"type":"Feature","id":"hydroweb.90","geometry":{"type":"Point","coordinates":[-68.83,-38.5]},"geometry_name":"the_geom","properties":{"name":"L_cerros-colorados","lon":-68.83,"lat":-38.5,"river":"","lake":"cerros-colorados","basin":"Negro2","status":"operational","validation":""}},{"type":"Feature","id":"hydroweb.91","geometry":{"type":"Point","coordinates":[124.25,45.25]},"geometry_name":"the_geom","properties":{"name":"L_chagan","lon":124.25,"lat":45.25,"river":"","lake":"chagan","basin":"Amur","status":"research","validation":""}},{"type":"Feature","id":"hydroweb.92","geometry":{"type":"Point","coordinates":[84.19,33.38]},"geometry_name":"the_geom","properties":{"name":"L_chagbo-co","lon":84.19,"lat":33.38,"river":"","lake":"chagbo-co","basin":"Mongolian","status":"operational","validation":""}},{"type":"Feature","id":"hydroweb.93","geometry":{"type":"Point","coordinates":[37.55,5.8]},"geometry_name":"the_geom","properties":{"name":"L_chamo","lon":37.55,"lat":5.8,"river":"","lake":"chamo","basin":"GreatRiftValley","status":"research","validation":""}},{"type":"Feature","id":"hydroweb.94","geometry":{"type":"Point","coordinates":[-73.32,44.5]},"geometry_name":"the_geom","properties":{"name":"L_champlain","lon":-73.32,"lat":44.5,"river":"","lake":"champlain","basin":"St-Lawrence","status":"research","validation":""}},{"type":"Feature","id":"hydroweb.95","geometry":{"type":"Point","coordinates":[117.57,31.57]},"geometry_name":"the_geom","properties":{"name":"L_chao","lon":117.57,"lat":31.57,"river":"","lake":"chao","basin":"Yangtze","status":"research","validation":""}},{"type":"Feature","id":"hydroweb.96","geometry":{"type":"Point","coordinates":[-103.06,20.24]},"geometry_name":"the_geom","properties":{"name":"L_chapala","lon":-103.06,"lat":20.24,"river":"","lake":"chapala","basin":"Santiago","status":"operational","validation":""}},{"type":"Feature","id":"hydroweb.97","geometry":{"type":"Point","coordinates":[68.16,41.12]},"geometry_name":"the_geom","properties":{"name":"L_chardarya","lon":68.16,"lat":41.12,"river":"","lake":"chardarya","basin":"Aral-Drainage","status":"operational","validation":""}},{"type":"Feature","id":"hydroweb.98","geometry":{"type":"Point","coordinates":[75.3,40.64]},"geometry_name":"the_geom","properties":{"name":"L_chatyrkol","lon":75.3,"lat":40.64,"river":"","lake":"chatyrkol","basin":"Tarim","status":"operational","validation":""}},{"type":"Feature","id":"hydroweb.99","geometry":{"type":"Point","coordinates":[-62.58,-30.75]},"geometry_name":"the_geom","properties":{"name":"L_chiquita","lon":-62.58,"lat":-30.75,"river":"","lake":"chiquita","basin":"Lake Mar Chiquita","status":"research","validation":""}},{"type":"Feature","id":"hydroweb.100","geometry":{"type":"Point","coordinates":[29.7,-8.7]},"geometry_name":"the_geom","properties":{"name":"L_chishi","lon":29.7,"lat":-8.7,"river":"","lake":"chishi","basin":"Congo","status":"operational","validation":""}},{"type":"Feature","id":"hydroweb.101","geometry":{"type":"Point","coordinates":[98.65,9.05]},"geometry_name":"the_geom","properties":{"name":"L_chlew-larn","lon":98.65,"lat":9.05,"river":"","lake":"chlew-larn","basin":"Ratchaprapha","status":"research","validation":""}},{"type":"Feature","id":"hydroweb.102","geometry":{"type":"Point","coordinates":[140.08,53.46]},"geometry_name":"the_geom","properties":{"name":"L_chlya","lon":140.08,"lat":53.46,"river":"","lake":"chlya","basin":"Amur","status":"operational","validation":""}},{"type":"Feature","id":"hydroweb.103","geometry":{"type":"Point","coordinates":[-68.99,-39.45]},"geometry_name":"the_geom","properties":{"name":"L_chocon","lon":-68.99,"lat":-39.45,"river":"","lake":"chocon","basin":"Negro2","status":"operational","validation":""}},{"type":"Feature","id":"hydroweb.104","geometry":{"type":"Point","coordinates":[136.58,52]},"geometry_name":"the_geom","properties":{"name":"L_chukchagirskoye","lon":136.58,"lat":52,"river":"","lake":"chukchagirskoye","basin":"Amur","status":"research","validation":""}},{"type":"Feature","id":"hydroweb.105","geometry":{"type":"Point","coordinates":[160.3,69.45]},"geometry_name":"the_geom","properties":{"name":"L_chukochye","lon":160.3,"lat":69.45,"river":"","lake":"chukochye","basin":"Kolyma","status":"operational","validation":""}},{"type":"Feature","id":"hydroweb.106","geometry":{"type":"Point","coordinates":[-74.05,9.15]},"geometry_name":"the_geom","properties":{"name":"L_cienagachilloa","lon":-74.05,"lat":9.15,"river":"","lake":"cienagachilloa","basin":"Magdalena-2","status":"operational","validation":""}},{"type":"Feature","id":"hydroweb.107","geometry":{"type":"Point","coordinates":[-112.08,58.57]},"geometry_name":"the_geom","properties":{"name":"L_claire","lon":-112.08,"lat":58.57,"river":"","lake":"claire","basin":"Mackenzie River","status":"operational","validation":""}},{"type":"Feature","id":"hydroweb.108","geometry":{"type":"Point","coordinates":[-107.46,63.94]},"geometry_name":"the_geom","properties":{"name":"L_clinton-colden","lon":-107.46,"lat":63.94,"river":"","lake":"clinton-colden","basin":"Back River","status":"research","validation":""}},{"type":"Feature","id":"hydroweb.109","geometry":{"type":"Point","coordinates":[-72,-47.3]},"geometry_name":"the_geom","properties":{"name":"L_cochrane","lon":-72,"lat":-47.3,"river":"","lake":"cochrane","basin":"Baker","status":"operational","validation":""}},{"type":"Feature","id":"hydroweb.110","geometry":{"type":"Point","coordinates":[-125.99,67.19]},"geometry_name":"the_geom","properties":{"name":"L_colville","lon":-125.99,"lat":67.19,"river":"","lake":"colville","basin":"Anderson River","status":"research","validation":""}},{"type":"Feature","id":"hydroweb.111","geometry":{"type":"Point","coordinates":[-57.2,-33.08]},"geometry_name":"the_geom","properties":{"name":"L_constitucion","lon":-57.2,"lat":-33.08,"river":"","lake":"constitucion","basin":"Negro3","status":"research","validation":""}},{"type":"Feature","id":"hydroweb.112","geometry":{"type":"Point","coordinates":[143.41,-38.19]},"geometry_name":"the_geom","properties":{"name":"L_corangamite","lon":143.41,"lat":-38.19,"river":"","lake":"corangamite","basin":"Corangamite","status":"operational","validation":""}},{"type":"Feature","id":"hydroweb.113","geometry":{"type":"Point","coordinates":[-100.79,54.22]},"geometry_name":"the_geom","properties":{"name":"L_cormorant","lon":-100.79,"lat":54.22,"river":"","lake":"cormorant","basin":"Nelson","status":"research","validation":""}},{"type":"Feature","id":"hydroweb.114","geometry":{"type":"Point","coordinates":[-75.3,60]},"geometry_name":"the_geom","properties":{"name":"L_couture","lon":-75.3,"lat":60,"river":"","lake":"couture","basin":"Couture","status":"research","validation":""}},{"type":"Feature","id":"hydroweb.115","geometry":{"type":"Point","coordinates":[91.86,35.32]},"geometry_name":"the_geom","properties":{"name":"L_cuodarima","lon":91.86,"lat":35.32,"river":"","lake":"cuodarima","basin":"Yangtze","status":"operational","validation":""}},{"type":"Feature","id":"hydroweb.116","geometry":{"type":"Point","coordinates":[87.55,31.9]},"geometry_name":"the_geom","properties":{"name":"L_dagze-co","lon":87.55,"lat":31.9,"river":"","lake":"dagze-co","basin":"Mongolian","status":"operational","validation":""}},{"type":"Feature","id":"hydroweb.117","geometry":{"type":"Point","coordinates":[116.62,43.37]},"geometry_name":"the_geom","properties":{"name":"L_dalai","lon":116.62,"lat":43.37,"river":"","lake":"dalai","basin":"Mongolian","status":"operational","validation":""}},{"type":"Feature","id":"hydroweb.118","geometry":{"type":"Point","coordinates":[100.54,-0.62]},"geometry_name":"the_geom","properties":{"name":"L_danausingkarak","lon":100.54,"lat":-0.62,"river":"","lake":"danausingkarak","basin":"Batang-Kuantan","status":"operational","validation":""}},{"type":"Feature","id":"hydroweb.119","geometry":{"type":"Point","coordinates":[121.5,-2.7]},"geometry_name":"the_geom","properties":{"name":"L_danau-towuti","lon":121.5,"lat":-2.7,"river":"","lake":"danau-towuti","basin":"Sulawesi","status":"operational","validation":""}},{"type":"Feature","id":"hydroweb.120","geometry":{"type":"Point","coordinates":[86.75,31.57]},"geometry_name":"the_geom","properties":{"name":"L_dangqiong","lon":86.75,"lat":31.57,"river":"","lake":"dangqiong","basin":"Dangqiong","status":"operational","validation":""}},{"type":"Feature","id":"hydroweb.121","geometry":{"type":"Point","coordinates":[-99.77,51.28]},"geometry_name":"the_geom","properties":{"name":"L_dauphin","lon":-99.77,"lat":51.28,"river":"","lake":"dauphin","basin":"Nelson","status":"research","validation":""}},{"type":"Feature","id":"hydroweb.122","geometry":{"type":"Point","coordinates":[-94.65,49.25]},"geometry_name":"the_geom","properties":{"name":"L_des_bois","lon":-94.65,"lat":49.25,"river":"","lake":"des_bois","basin":"Nelson","status":"operational","validation":""}},{"type":"Feature","id":"hydroweb.123","geometry":{"type":"Point","coordinates":[-103.58,54.66]},"geometry_name":"the_geom","properties":{"name":"L_deschambault","lon":-103.58,"lat":54.66,"river":"","lake":"deschambault","basin":"Churchill","status":"research","validation":""}},{"type":"Feature","id":"hydroweb.124","geometry":{"type":"Point","coordinates":[88.9,34.6]},"geometry_name":"the_geom","properties":{"name":"L_dogaicoring","lon":88.9,"lat":34.6,"river":"","lake":"dogaicoring","basin":"Mongolian","status":"research","validation":""}},{"type":"Feature","id":"hydroweb.125","geometry":{"type":"Point","coordinates":[89.26,35.3]},"geometry_name":"the_geom","properties":{"name":"L_dogaicoring-q","lon":89.26,"lat":35.3,"river":"","lake":"dogaicoring-q","basin":"Tarim","status":"operational","validation":""}},{"type":"Feature","id":"hydroweb.126","geometry":{"type":"Point","coordinates":[112.92,29.33]},"geometry_name":"the_geom","properties":{"name":"L_dongting","lon":112.92,"lat":29.33,"river":"","lake":"dongting","basin":"Yangtze","status":"research","validation":""}},{"type":"Feature","id":"hydroweb.127","geometry":{"type":"Point","coordinates":[-107.27,54.77]},"geometry_name":"the_geom","properties":{"name":"L_dore","lon":-107.27,"lat":54.77,"river":"","lake":"dore","basin":"Churchill","status":"research","validation":""}},{"type":"Feature","id":"hydroweb.128","geometry":{"type":"Point","coordinates":[93.45,47.68]},"geometry_name":"the_geom","properties":{"name":"L_dorgon","lon":93.45,"lat":47.68,"river":"","lake":"dorgon","basin":"Mongolian","status":"operational","validation":""}},{"type":"Feature","id":"hydroweb.129","geometry":{"type":"Point","coordinates":[89.88,33.4]},"geometry_name":"the_geom","properties":{"name":"L_dorsoidong-co","lon":89.88,"lat":33.4,"river":"","lake":"dorsoidong-co","basin":"Mongolian","status":"operational","validation":""}},{"type":"Feature","id":"hydroweb.130","geometry":{"type":"Point","coordinates":[-101.42,63.1]},"geometry_name":"the_geom","properties":{"name":"L_dubawnt","lon":-101.42,"lat":63.1,"river":"","lake":"dubawnt","basin":"Thelon","status":"operational","validation":""}},{"type":"Feature","id":"hydroweb.131","geometry":{"type":"Point","coordinates":[44.92,36.07]},"geometry_name":"the_geom","properties":{"name":"L_dukan","lon":44.92,"lat":36.07,"river":"","lake":"dukan","basin":"Tigris-Euphrates","status":"research","validation":""}},{"type":"Feature","id":"hydroweb.132","geometry":{"type":"Point","coordinates":[29.6,-0.34]},"geometry_name":"the_geom","properties":{"name":"L_edouard","lon":29.6,"lat":-0.34,"river":"","lake":"edouard","basin":"Nile","status":"operational","validation":""}},{"type":"Feature","id":"hydroweb.133","geometry":{"type":"Point","coordinates":[30.89,38.06]},"geometry_name":"the_geom","properties":{"name":"L_egridir","lon":30.89,"lat":38.06,"river":"","lake":"egridir","basin":"Egridir","status":"operational","validation":""}},{"type":"Feature","id":"hydroweb.134","geometry":{"type":"Point","coordinates":[-47.8,-18.42]},"geometry_name":"the_geom","properties":{"name":"L_emborcacao","lon":-47.8,"lat":-18.42,"river":"","lake":"emborcacao","basin":"Parana","status":"research","validation":""}},{"type":"Feature","id":"hydroweb.135","geometry":{"type":"Point","coordinates":[-101.3,60.99]},"geometry_name":"the_geom","properties":{"name":"L_ennadai","lon":-101.3,"lat":60.99,"river":"","lake":"ennadai","basin":"Thelon","status":"research","validation":""}},{"type":"Feature","id":"hydroweb.136","geometry":{"type":"Point","coordinates":[-80.5,70.66]},"geometry_name":"the_geom","properties":{"name":"L_erichsen","lon":-80.5,"lat":70.66,"river":"","lake":"erichsen","basin":"Nunavut","status":"research","validation":""}},{"type":"Feature","id":"hydroweb.137","geometry":{"type":"Point","coordinates":[-81,42]},"geometry_name":"the_geom","properties":{"name":"L_erie","lon":-81,"lat":42,"river":"","lake":"erie","basin":"St-Lawrence","status":"operational","validation":""}},{"type":"Feature","id":"hydroweb.138","geometry":{"type":"Point","coordinates":[-117.28,63.95]},"geometry_name":"the_geom","properties":{"name":"L_faber","lon":-117.28,"lat":63.95,"river":"","lake":"faber","basin":"Mackenzie River","status":"operational","validation":""}},{"type":"Feature","id":"hydroweb.139","geometry":{"type":"Point","coordinates":[-68,-54.56]},"geometry_name":"the_geom","properties":{"name":"L_fagnano","lon":-68,"lat":-54.56,"river":"","lake":"fagnano","basin":"Fagnano","status":"research","validation":""}},{"type":"Feature","id":"hydroweb.140","geometry":{"type":"Point","coordinates":[17.52,12.77]},"geometry_name":"the_geom","properties":{"name":"L_fitri","lon":17.52,"lat":12.77,"river":"","lake":"fitri","basin":"Lake-Chad","status":"operational","validation":""}},{"type":"Feature","id":"hydroweb.141","geometry":{"type":"Point","coordinates":[-114.11,47.9]},"geometry_name":"the_geom","properties":{"name":"L_flathead","lon":-114.11,"lat":47.9,"river":"","lake":"flathead","basin":"Columbia","status":"research","validation":""}},{"type":"Feature","id":"hydroweb.142","geometry":{"type":"Point","coordinates":[-71.51,-44.91]},"geometry_name":"the_geom","properties":{"name":"L_fontana","lon":-71.51,"lat":-44.91,"river":"","lake":"fontana","basin":"Chubut","status":"operational","validation":""}},{"type":"Feature","id":"hydroweb.143","geometry":{"type":"Point","coordinates":[-102.39,47.81]},"geometry_name":"the_geom","properties":{"name":"L_fort-berthold","lon":-102.39,"lat":47.81,"river":"","lake":"fort-berthold","basin":"Mississippi","status":"research","validation":""}},{"type":"Feature","id":"hydroweb.144","geometry":{"type":"Point","coordinates":[-106.53,47.87]},"geometry_name":"the_geom","properties":{"name":"L_fort_peck","lon":-106.53,"lat":47.87,"river":"","lake":"fort_peck","basin":"Mississippi","status":"operational","validation":""}},{"type":"Feature","id":"hydroweb.145","geometry":{"type":"Point","coordinates":[75.44,24.46]},"geometry_name":"the_geom","properties":{"name":"L_gandhisagar","lon":75.44,"lat":24.46,"river":"","lake":"gandhisagar","basin":"Ganges-Brahmaputra","status":"research","validation":""}},{"type":"Feature","id":"hydroweb.146","geometry":{"type":"Point","coordinates":[10.69,45.66]},"geometry_name":"the_geom","properties":{"name":"L_garda","lon":10.69,"lat":45.66,"river":"","lake":"garda","basin":"Po","status":"research","validation":""}},{"type":"Feature","id":"hydroweb.147","geometry":{"type":"Point","coordinates":[86.5,33.96]},"geometry_name":"the_geom","properties":{"name":"L_garkung","lon":86.5,"lat":33.96,"river":"","lake":"garkung","basin":"Garkung","status":"operational","validation":""}},{"type":"Feature","id":"hydroweb.148","geometry":{"type":"Point","coordinates":[-100.31,65.93]},"geometry_name":"the_geom","properties":{"name":"L_garry","lon":-100.31,"lat":65.93,"river":"","lake":"garry","basin":"Back River","status":"research","validation":""}},{"type":"Feature","id":"hydroweb.149","geometry":{"type":"Point","coordinates":[-79.92,9.17]},"geometry_name":"the_geom","properties":{"name":"L_gatun","lon":-79.92,"lat":9.17,"river":"","lake":"gatun","basin":"Panama","status":"research","validation":""}},{"type":"Feature","id":"hydroweb.150","geometry":{"type":"Point","coordinates":[-72,-46.49]},"geometry_name":"the_geom","properties":{"name":"L_general_carrera","lon":-72,"lat":-46.49,"river":"","lake":"general_carrera","basin":"Baker","status":"research","validation":""}},{"type":"Feature","id":"hydroweb.151","geometry":{"type":"Point","coordinates":[30.23,-0]},"geometry_name":"the_geom","properties":{"name":"L_george","lon":30.23,"lat":-0,"river":"","lake":"george","basin":"Nile","status":"operational","validation":""}},{"type":"Feature","id":"hydroweb.152","geometry":{"type":"Point","coordinates":[-94.21,54.62]},"geometry_name":"the_geom","properties":{"name":"L_gods","lon":-94.21,"lat":54.62,"river":"","lake":"gods","basin":"Hayes","status":"operational","validation":""}},{"type":"Feature","id":"hydroweb.153","geometry":{"type":"Point","coordinates":[146.15,-42.71]},"geometry_name":"the_geom","properties":{"name":"L_gordon","lon":146.15,"lat":-42.71,"river":"","lake":"gordon","basin":"Tasmania","status":"research","validation":""}},{"type":"Feature","id":"hydroweb.154","geometry":{"type":"Point","coordinates":[-74.76,48.53]},"geometry_name":"the_geom","properties":{"name":"L_gouin","lon":-74.76,"lat":48.53,"river":"","lake":"gouin","basin":"Matagami","status":"research","validation":""}},{"type":"Feature","id":"hydroweb.155","geometry":{"type":"Point","coordinates":[82.84,24.08]},"geometry_name":"the_geom","properties":{"name":"L_govind-ballabah","lon":82.84,"lat":24.08,"river":"","lake":"govind-ballabah","basin":"Ganges-Brahmaputra","status":"research","validation":""}},{"type":"Feature","id":"hydroweb.156","geometry":{"type":"Point","coordinates":[-75.38,53.83]},"geometry_name":"the_geom","properties":{"name":"L_grande_trois","lon":-75.38,"lat":53.83,"river":"","lake":"grande_trois","basin":"Grande-Riviere-Baleine","status":"operational","validation":""}},{"type":"Feature","id":"hydroweb.157","geometry":{"type":"Point","coordinates":[-120,66]},"geometry_name":"the_geom","properties":{"name":"L_great_bear","lon":-120,"lat":66,"river":"","lake":"great_bear","basin":"MacKenzie River","status":"research","validation":""}},{"type":"Feature","id":"hydroweb.158","geometry":{"type":"Point","coordinates":[-112.49,41.1]},"geometry_name":"the_geom","properties":{"name":"L_great_salt","lon":-112.49,"lat":41.1,"river":"","lake":"great_salt","basin":"Bear","status":"research","validation":""}},{"type":"Feature","id":"hydroweb.159","geometry":{"type":"Point","coordinates":[-114,61.83]},"geometry_name":"the_geom","properties":{"name":"L_greatslave","lon":-114,"lat":61.83,"river":"","lake":"greatslave","basin":"Mackenzie River","status":"operational","validation":""}},{"type":"Feature","id":"hydroweb.160","geometry":{"type":"Point","coordinates":[-62.8,7.41]},"geometry_name":"the_geom","properties":{"name":"L_guri","lon":-62.8,"lat":7.41,"river":"","lake":"guri","basin":"Orinoco","status":"operational","validation":""}},{"type":"Feature","id":"hydroweb.161","geometry":{"type":"Point","coordinates":[88.31,31.14]},"geometry_name":"the_geom","properties":{"name":"L_gyaring-co","lon":88.31,"lat":31.14,"river":"","lake":"gyaring-co","basin":"Mongolian","status":"operational","validation":""}},{"type":"Feature","id":"hydroweb.162","geometry":{"type":"Point","coordinates":[80.9,33.95]},"geometry_name":"the_geom","properties":{"name":"L_gyeze-caka","lon":80.9,"lat":33.95,"river":"","lake":"gyeze-caka","basin":"Mongolian","status":"operational","validation":""}},{"type":"Feature","id":"hydroweb.163","geometry":{"type":"Point","coordinates":[43.49,33.29]},"geometry_name":"the_geom","properties":{"name":"L_habbaniyah","lon":43.49,"lat":33.29,"river":"","lake":"habbaniyah","basin":"Tigris-Euphrates","status":"operational","validation":""}},{"type":"Feature","id":"hydroweb.164","geometry":{"type":"Point","coordinates":[97.6,38.3]},"geometry_name":"the_geom","properties":{"name":"L_hala","lon":97.6,"lat":38.3,"river":"","lake":"hala","basin":"Mongolian","status":"operational","validation":""}},{"type":"Feature","id":"hydroweb.165","geometry":{"type":"Point","coordinates":[-82.31,68.73]},"geometry_name":"the_geom","properties":{"name":"L_hall","lon":-82.31,"lat":68.73,"river":"","lake":"hall","basin":"Hall","status":"research","validation":""}},{"type":"Feature","id":"hydroweb.166","geometry":{"type":"Point","coordinates":[45.01,34.2]},"geometry_name":"the_geom","properties":{"name":"L_hamrin","lon":45.01,"lat":34.2,"river":"","lake":"hamrin","basin":"Tigris-Euphrates","status":"operational","validation":""}},{"type":"Feature","id":"hydroweb.167","geometry":{"type":"Point","coordinates":[111.35,32.68]},"geometry_name":"the_geom","properties":{"name":"L_han-shui","lon":111.35,"lat":32.68,"river":"","lake":"han-shui","basin":"Yangtze","status":"research","validation":""}},{"type":"Feature","id":"hydroweb.168","geometry":{"type":"Point","coordinates":[93.23,48.1]},"geometry_name":"the_geom","properties":{"name":"L_har","lon":93.23,"lat":48.1,"river":"","lake":"har","basin":"Mongolian","status":"operational","validation":""}},{"type":"Feature","id":"hydroweb.169","geometry":{"type":"Point","coordinates":[47.76,31.68]},"geometry_name":"the_geom","properties":{"name":"L_hawizeh-marshes","lon":47.76,"lat":31.68,"river":"","lake":"hawizeh-marshes","basin":"Tigris-Euphrates","status":"operational","validation":""}},{"type":"Feature","id":"hydroweb.170","geometry":{"type":"Point","coordinates":[82.76,35.56]},"geometry_name":"the_geom","properties":{"name":"L_heishi-beihu","lon":82.76,"lat":35.56,"river":"","lake":"heishi-beihu","basin":"Tarim","status":"operational","validation":""}},{"type":"Feature","id":"hydroweb.171","geometry":{"type":"Point","coordinates":[25.73,-30.63]},"geometry_name":"the_geom","properties":{"name":"L_hendrik-verwoerd","lon":25.73,"lat":-30.63,"river":"","lake":"hendrik-verwoerd","basin":"Orange","status":"operational","validation":""}},{"type":"Feature","id":"hydroweb.172","geometry":{"type":"Point","coordinates":[-62.43,-35.97]},"geometry_name":"the_geom","properties":{"name":"L_hinojo","lon":-62.43,"lat":-35.97,"river":"","lake":"hinojo","basin":"Salado","status":"operational","validation":""}},{"type":"Feature","id":"hydroweb.173","geometry":{"type":"Point","coordinates":[83.78,21.63]},"geometry_name":"the_geom","properties":{"name":"L_hirakud","lon":83.78,"lat":21.63,"river":"","lake":"hirakud","basin":"Mahanadi","status":"research","validation":""}},{"type":"Feature","id":"hydroweb.174","geometry":{"type":"Point","coordinates":[15.78,59.23]},"geometry_name":"the_geom","properties":{"name":"L_hjalmaren","lon":15.78,"lat":59.23,"river":"","lake":"hjalmaren","basin":"Hjalmaren","status":"research","validation":""}},{"type":"Feature","id":"hydroweb.175","geometry":{"type":"Point","coordinates":[91.15,35.58]},"geometry_name":"the_geom","properties":{"name":"L_hoh-xil-hu","lon":91.15,"lat":35.58,"river":"","lake":"hoh-xil-hu","basin":"Mongolian","status":"operational","validation":""}},{"type":"Feature","id":"hydroweb.176","geometry":{"type":"Point","coordinates":[-64.98,-27.54]},"geometry_name":"the_geom","properties":{"name":"L_hondo","lon":-64.98,"lat":-27.54,"river":"","lake":"hondo","basin":"Lake Mar Chiquita","status":"research","validation":""}},{"type":"Feature","id":"hydroweb.177","geometry":{"type":"Point","coordinates":[113.35,29.86]},"geometry_name":"the_geom","properties":{"name":"L_hong","lon":113.35,"lat":29.86,"river":"","lake":"hong","basin":"Yangtze","status":"research","validation":""}},{"type":"Feature","id":"hydroweb.178","geometry":{"type":"Point","coordinates":[118.68,33.3]},"geometry_name":"the_geom","properties":{"name":"L_hongze","lon":118.68,"lat":33.3,"river":"","lake":"hongze","basin":"Yangtze","status":"operational","validation":""}},{"type":"Feature","id":"hydroweb.179","geometry":{"type":"Point","coordinates":[107.14,11.18]},"geometry_name":"the_geom","properties":{"name":"L_ho-tri-han","lon":107.14,"lat":11.18,"river":"","lake":"ho-tri-han","basin":"Ho-tri-han","status":"research","validation":""}},{"type":"Feature","id":"hydroweb.180","geometry":{"type":"Point","coordinates":[-118.39,64.96]},"geometry_name":"the_geom","properties":{"name":"L_hottah","lon":-118.39,"lat":64.96,"river":"","lake":"hottah","basin":"Mackenzie River","status":"operational","validation":""}},{"type":"Feature","id":"hydroweb.181","geometry":{"type":"Point","coordinates":[100.41,51]},"geometry_name":"the_geom","properties":{"name":"L_hovsgol","lon":100.41,"lat":51,"river":"","lake":"hovsgol","basin":"Yenisei","status":"operational","validation":""}},{"type":"Feature","id":"hydroweb.182","geometry":{"type":"Point","coordinates":[-68.8,-45.58]},"geometry_name":"the_geom","properties":{"name":"L_huapi","lon":-68.8,"lat":-45.58,"river":"","lake":"huapi","basin":"Chubut","status":"research","validation":""}},{"type":"Feature","id":"hydroweb.183","geometry":{"type":"Point","coordinates":[117.5,49]},"geometry_name":"the_geom","properties":{"name":"L_hulun","lon":117.5,"lat":49,"river":"","lake":"hulun","basin":"Amur","status":"research","validation":""}},{"type":"Feature","id":"hydroweb.184","geometry":{"type":"Point","coordinates":[-82.28,44.67]},"geometry_name":"the_geom","properties":{"name":"L_huron","lon":-82.28,"lat":44.67,"river":"","lake":"huron","basin":"St-Lawrence","status":"operational","validation":""}},{"type":"Feature","id":"hydroweb.185","geometry":{"type":"Point","coordinates":[93.33,49.17]},"geometry_name":"the_geom","properties":{"name":"L_hyargas","lon":93.33,"lat":49.17,"river":"","lake":"hyargas","basin":"Mongolian","status":"operational","validation":""}},{"type":"Feature","id":"hydroweb.186","geometry":{"type":"Point","coordinates":[-50.99,-22.8]},"geometry_name":"the_geom","properties":{"name":"L_iepe","lon":-50.99,"lat":-22.8,"river":"","lake":"iepe","basin":"Parana","status":"research","validation":""}},{"type":"Feature","id":"hydroweb.187","geometry":{"type":"Point","coordinates":[-55.16,-25.31]},"geometry_name":"the_geom","properties":{"name":"L_iguazu","lon":-55.16,"lat":-25.31,"river":"","lake":"iguazu","basin":"Parana","status":"research","validation":""}},{"type":"Feature","id":"hydroweb.188","geometry":{"type":"Point","coordinates":[-51.04,-20.2]},"geometry_name":"the_geom","properties":{"name":"L_ilha_solteira","lon":-51.04,"lat":-20.2,"river":"","lake":"ilha_solteira","basin":"Parana","status":"research","validation":""}},{"type":"Feature","id":"hydroweb.189","geometry":{"type":"Point","coordinates":[-154.9,59.56]},"geometry_name":"the_geom","properties":{"name":"L_iliamna","lon":-154.9,"lat":59.56,"river":"","lake":"iliamna","basin":"Illiamna","status":"operational","validation":""}},{"type":"Feature","id":"hydroweb.190","geometry":{"type":"Point","coordinates":[31.3,58.27]},"geometry_name":"the_geom","properties":{"name":"L_illmen","lon":31.3,"lat":58.27,"river":"","lake":"illmen","basin":"Neva","status":"operational","validation":""}},{"type":"Feature","id":"hydroweb.191","geometry":{"type":"Point","coordinates":[27.84,69.04]},"geometry_name":"the_geom","properties":{"name":"L_inarinjarvi","lon":27.84,"lat":69.04,"river":"","lake":"inarinjarvi","basin":"Inari","status":"operational","validation":""}},{"type":"Feature","id":"hydroweb.192","geometry":{"type":"Point","coordinates":[76.66,22.19]},"geometry_name":"the_geom","properties":{"name":"L_indira-sagarnh","lon":76.66,"lat":22.19,"river":"","lake":"indira-sagarnh","basin":"Narmada","status":"research","validation":""}},{"type":"Feature","id":"hydroweb.193","geometry":{"type":"Point","coordinates":[31,66.5]},"geometry_name":"the_geom","properties":{"name":"L_iovskoye","lon":31,"lat":66.5,"river":"","lake":"iovskoye","basin":"kovda","status":"research","validation":""}},{"type":"Feature","id":"hydroweb.194","geometry":{"type":"Point","coordinates":[10.03,45.74]},"geometry_name":"the_geom","properties":{"name":"L_iseo","lon":10.03,"lat":45.74,"river":"","lake":"iseo","basin":"Po","status":"research","validation":""}},{"type":"Feature","id":"hydroweb.195","geometry":{"type":"Point","coordinates":[77.33,42.42]},"geometry_name":"the_geom","properties":{"name":"L_issykkul","lon":77.33,"lat":42.42,"river":"","lake":"issykkul","basin":"Issyk-Kul","status":"operational","validation":""}},{"type":"Feature","id":"hydroweb.196","geometry":{"type":"Point","coordinates":[-38.51,-8.95]},"geometry_name":"the_geom","properties":{"name":"L_itaparica","lon":-38.51,"lat":-8.95,"river":"","lake":"itaparica","basin":"Sao-Francisco","status":"research","validation":""}},{"type":"Feature","id":"hydroweb.197","geometry":{"type":"Point","coordinates":[-49.61,-23.33]},"geometry_name":"the_geom","properties":{"name":"L_itarare","lon":-49.61,"lat":-23.33,"river":"","lake":"itarare","basin":"Parana","status":"research","validation":""}},{"type":"Feature","id":"hydroweb.198","geometry":{"type":"Point","coordinates":[25.91,-15.72]},"geometry_name":"the_geom","properties":{"name":"L_itezhi","lon":25.91,"lat":-15.72,"river":"","lake":"itezhi","basin":"Zambezi","status":"research","validation":""}},{"type":"Feature","id":"hydroweb.199","geometry":{"type":"Point","coordinates":[-48.78,-18.31]},"geometry_name":"the_geom","properties":{"name":"L_itumbiara","lon":-48.78,"lat":-18.31,"river":"","lake":"itumbiara","basin":"Parana","status":"research","validation":""}},{"type":"Feature","id":"hydroweb.200","geometry":{"type":"Point","coordinates":[36.67,56.69]},"geometry_name":"the_geom","properties":{"name":"L_ivankovo","lon":36.67,"lat":56.69,"river":"","lake":"ivankovo","basin":"Volga","status":"research","validation":""}},{"type":"Feature","id":"hydroweb.201","geometry":{"type":"Point","coordinates":[-89.17,15.5]},"geometry_name":"the_geom","properties":{"name":"L_izabal","lon":-89.17,"lat":15.5,"river":"","lake":"izabal","basin":"Motagua","status":"research","validation":""}},{"type":"Feature","id":"hydroweb.202","geometry":{"type":"Point","coordinates":[29.53,40.44]},"geometry_name":"the_geom","properties":{"name":"L_iznik","lon":29.53,"lat":40.44,"river":"","lake":"iznik","basin":"Iznik","status":"operational","validation":""}},{"type":"Feature","id":"hydroweb.203","geometry":{"type":"Point","coordinates":[75.22,19.53]},"geometry_name":"the_geom","properties":{"name":"L_jayakwadi","lon":75.22,"lat":19.53,"river":"","lake":"jayakwadi","basin":"Godavari","status":"operational","validation":""}},{"type":"Feature","id":"hydroweb.204","geometry":{"type":"Point","coordinates":[89.45,36.32]},"geometry_name":"the_geom","properties":{"name":"L_jingyu","lon":89.45,"lat":36.32,"river":"","lake":"jingyu","basin":"Mongolian","status":"research","validation":""}},{"type":"Feature","id":"hydroweb.205","geometry":{"type":"Point","coordinates":[25.98,-8.94]},"geometry_name":"the_geom","properties":{"name":"L_kabele","lon":25.98,"lat":-8.94,"river":"","lake":"kabele","basin":"Congo","status":"operational","validation":""}},{"type":"Feature","id":"hydroweb.206","geometry":{"type":"Point","coordinates":[26.02,-9.15]},"geometry_name":"the_geom","properties":{"name":"L_kabwe","lon":26.02,"lat":-9.15,"river":"","lake":"kabwe","basin":"Congo","status":"operational","validation":""}},{"type":"Feature","id":"hydroweb.207","geometry":{"type":"Point","coordinates":[4.56,10.31]},"geometry_name":"the_geom","properties":{"name":"L_kainji","lon":4.56,"lat":10.31,"river":"","lake":"kainji","basin":"Niger","status":"operational","validation":""}},{"type":"Feature","id":"hydroweb.208","geometry":{"type":"Point","coordinates":[70.1,40.3]},"geometry_name":"the_geom","properties":{"name":"L_kairakum","lon":70.1,"lat":40.3,"river":"","lake":"kairakum","basin":"Aral-Drainage","status":"operational","validation":""}},{"type":"Feature","id":"hydroweb.209","geometry":{"type":"Point","coordinates":[-101.72,62.28]},"geometry_name":"the_geom","properties":{"name":"L_kamilukuak","lon":-101.72,"lat":62.28,"river":"","lake":"kamilukuak","basin":"Thelon","status":"operational","validation":""}},{"type":"Feature","id":"hydroweb.210","geometry":{"type":"Point","coordinates":[56.3,58.8]},"geometry_name":"the_geom","properties":{"name":"L_kamskoye","lon":56.3,"lat":58.8,"river":"","lake":"kamskoye","basin":"Volga","status":"research","validation":""}},{"type":"Feature","id":"hydroweb.211","geometry":{"type":"Point","coordinates":[61.83,46.2]},"geometry_name":"the_geom","properties":{"name":"L_kamyshlybas","lon":61.83,"lat":46.2,"river":"","lake":"kamyshlybas","basin":"Aral-Drainage","status":"operational","validation":""}},{"type":"Feature","id":"hydroweb.212","geometry":{"type":"Point","coordinates":[77.57,43.81]},"geometry_name":"the_geom","properties":{"name":"L_kapchagayskoye","lon":77.57,"lat":43.81,"river":"","lake":"kapchagayskoye","basin":"Balkhash","status":"operational","validation":""}},{"type":"Feature","id":"hydroweb.213","geometry":{"type":"Point","coordinates":[53.6,41.3]},"geometry_name":"the_geom","properties":{"name":"L_kara_bogaz_gol","lon":53.6,"lat":41.3,"river":"","lake":"kara_bogaz_gol","basin":"Caspian","status":"operational","validation":""}},{"type":"Feature","id":"hydroweb.214","geometry":{"type":"Point","coordinates":[75.39,49.87]},"geometry_name":"the_geom","properties":{"name":"L_karasor","lon":75.39,"lat":49.87,"river":"","lake":"karasor","basin":"Karasor","status":"operational","validation":""}},{"type":"Feature","id":"hydroweb.215","geometry":{"type":"Point","coordinates":[28,-16.93]},"geometry_name":"the_geom","properties":{"name":"L_kariba","lon":28,"lat":-16.93,"river":"","lake":"kariba","basin":"Zambezi","status":"operational","validation":""}},{"type":"Feature","id":"hydroweb.216","geometry":{"type":"Point","coordinates":[-102.15,60.26]},"geometry_name":"the_geom","properties":{"name":"L_kasba","lon":-102.15,"lat":60.26,"river":"","lake":"kasba","basin":"Thlewiaza","status":"operational","validation":""}},{"type":"Feature","id":"hydroweb.217","geometry":{"type":"Point","coordinates":[39.11,38.89]},"geometry_name":"the_geom","properties":{"name":"L_keban","lon":39.11,"lat":38.89,"river":"","lake":"keban","basin":"Tigris-Euphrates","status":"research","validation":""}},{"type":"Feature","id":"hydroweb.218","geometry":{"type":"Point","coordinates":[27.57,66.64]},"geometry_name":"the_geom","properties":{"name":"L_kemijarvi","lon":27.57,"lat":66.64,"river":"","lake":"kemijarvi","basin":"Kemijoki","status":"research","validation":""}},{"type":"Feature","id":"hydroweb.219","geometry":{"type":"Point","coordinates":[-88.08,36.33]},"geometry_name":"the_geom","properties":{"name":"L_kentucky","lon":-88.08,"lat":36.33,"river":"","lake":"kentucky","basin":"Mississippi","status":"research","validation":""}},{"type":"Feature","id":"hydroweb.220","geometry":{"type":"Point","coordinates":[132.42,45]},"geometry_name":"the_geom","properties":{"name":"L_khanka","lon":132.42,"lat":45,"river":"","lake":"khanka","basin":"Amur","status":"research","validation":""}},{"type":"Feature","id":"hydroweb.221","geometry":{"type":"Point","coordinates":[98.52,14.91]},"geometry_name":"the_geom","properties":{"name":"L_khaolaem","lon":98.52,"lat":14.91,"river":"","lake":"khaolaem","basin":"Mae-Klong","status":"research","validation":""}},{"type":"Feature","id":"hydroweb.222","geometry":{"type":"Point","coordinates":[37.42,-3.71]},"geometry_name":"the_geom","properties":{"name":"L_kikuletwa","lon":37.42,"lat":-3.71,"river":"","lake":"kikuletwa","basin":"Pangani","status":"research","validation":""}},{"type":"Feature","id":"hydroweb.223","geometry":{"type":"Point","coordinates":[45.83,-16.17]},"geometry_name":"the_geom","properties":{"name":"L_kinkony","lon":45.83,"lat":-16.17,"river":"","lake":"kinkony","basin":"Kinkony","status":"operational","validation":""}},{"type":"Feature","id":"hydroweb.224","geometry":{"type":"Point","coordinates":[26.49,-8.28]},"geometry_name":"the_geom","properties":{"name":"L_kisale","lon":26.49,"lat":-8.28,"river":"","lake":"kisale","basin":"Congo","status":"operational","validation":""}},{"type":"Feature","id":"hydroweb.225","geometry":{"type":"Point","coordinates":[-98.53,54.28]},"geometry_name":"the_geom","properties":{"name":"L_kiskitto","lon":-98.53,"lat":54.28,"river":"","lake":"kiskitto","basin":"Nelson","status":"research","validation":""}},{"type":"Feature","id":"hydroweb.226","geometry":{"type":"Point","coordinates":[-98.23,54.32]},"geometry_name":"the_geom","properties":{"name":"L_kiskittogisu","lon":-98.23,"lat":54.32,"river":"","lake":"kiskittogisu","basin":"Nelson","status":"research","validation":""}},{"type":"Feature","id":"hydroweb.227","geometry":{"type":"Point","coordinates":[-92.61,54.6]},"geometry_name":"the_geom","properties":{"name":"L_kistigan","lon":-92.61,"lat":54.6,"river":"","lake":"kistigan","basin":"Hayes","status":"research","validation":""}},{"type":"Feature","id":"hydroweb.228","geometry":{"type":"Point","coordinates":[29.13,-1.98]},"geometry_name":"the_geom","properties":{"name":"L_kivu","lon":29.13,"lat":-1.98,"river":"","lake":"kivu","basin":"Congo","status":"operational","validation":""}},{"type":"Feature","id":"hydroweb.229","geometry":{"type":"Point","coordinates":[100.17,36.92]},"geometry_name":"the_geom","properties":{"name":"L_kokonor","lon":100.17,"lat":36.92,"river":"","lake":"kokonor","basin":"Mongolian","status":"operational","validation":""}},{"type":"Feature","id":"hydroweb.230","geometry":{"type":"Point","coordinates":[149.56,61.81]},"geometry_name":"the_geom","properties":{"name":"L_kolyma","lon":149.56,"lat":61.81,"river":"","lake":"kolyma","basin":"Kolyma","status":"research","validation":""}},{"type":"Feature","id":"hydroweb.231","geometry":{"type":"Point","coordinates":[-5.57,7.33]},"geometry_name":"the_geom","properties":{"name":"L_kossou","lon":-5.57,"lat":7.33,"river":"","lake":"kossou","basin":"Bandama","status":"operational","validation":""}},{"type":"Feature","id":"hydroweb.232","geometry":{"type":"Point","coordinates":[90.94,54.82]},"geometry_name":"the_geom","properties":{"name":"L_krasnoyarskoye","lon":90.94,"lat":54.82,"river":"","lake":"krasnoyarskoye","basin":"Yenisei","status":"operational","validation":""}},{"type":"Feature","id":"hydroweb.233","geometry":{"type":"Point","coordinates":[32.69,49.26]},"geometry_name":"the_geom","properties":{"name":"L_kremenchutska","lon":32.69,"lat":49.26,"river":"","lake":"kremenchutska","basin":"Dniepr","status":"operational","validation":""}},{"type":"Feature","id":"hydroweb.234","geometry":{"type":"Point","coordinates":[39.5,59.6]},"geometry_name":"the_geom","properties":{"name":"L_kubenskoye","lon":39.5,"lat":59.6,"river":"","lake":"kubenskoye","basin":"Northern-Dvina","status":"operational","validation":""}},{"type":"Feature","id":"hydroweb.235","geometry":{"type":"Point","coordinates":[79.5,53]},"geometry_name":"the_geom","properties":{"name":"L_kulundinskoye","lon":79.5,"lat":53,"river":"","lake":"kulundinskoye","basin":"Tchany","status":"operational","validation":""}},{"type":"Feature","id":"hydroweb.236","geometry":{"type":"Point","coordinates":[31.8,65.75]},"geometry_name":"the_geom","properties":{"name":"L_kumskoye","lon":31.8,"lat":65.75,"river":"","lake":"kumskoye","basin":"Kem","status":"operational","validation":""}},{"type":"Feature","id":"hydroweb.237","geometry":{"type":"Point","coordinates":[89.3,67.11]},"geometry_name":"the_geom","properties":{"name":"L_kureiskaya","lon":89.3,"lat":67.11,"river":"","lake":"kureiskaya","basin":"Yenisei","status":"research","validation":""}},{"type":"Feature","id":"hydroweb.238","geometry":{"type":"Point","coordinates":[48.86,54.63]},"geometry_name":"the_geom","properties":{"name":"L_kuybyshevskoye","lon":48.86,"lat":54.63,"river":"","lake":"kuybyshevskoye","basin":"Volga","status":"operational","validation":""}},{"type":"Feature","id":"hydroweb.239","geometry":{"type":"Point","coordinates":[32.75,1.75]},"geometry_name":"the_geom","properties":{"name":"L_kwania","lon":32.75,"lat":1.75,"river":"","lake":"kwania","basin":"Nile","status":"research","validation":""}},{"type":"Feature","id":"hydroweb.240","geometry":{"type":"Point","coordinates":[33.01,1.48]},"geometry_name":"the_geom","properties":{"name":"L_kyoga","lon":33.01,"lat":1.48,"river":"","lake":"kyoga","basin":"Nile","status":"operational","validation":""}},{"type":"Feature","id":"hydroweb.241","geometry":{"type":"Point","coordinates":[99.53,72.31]},"geometry_name":"the_geom","properties":{"name":"L_labaz","lon":99.53,"lat":72.31,"river":"","lake":"labaz","basin":"Khatanga","status":"research","validation":""}},{"type":"Feature","id":"hydroweb.242","geometry":{"type":"Point","coordinates":[38.78,61.33]},"geometry_name":"the_geom","properties":{"name":"L_lacha","lon":38.78,"lat":61.33,"river":"","lake":"lacha","basin":"Onega","status":"research","validation":""}},{"type":"Feature","id":"hydroweb.243","geometry":{"type":"Point","coordinates":[31.37,60.83]},"geometry_name":"the_geom","properties":{"name":"L_ladoga","lon":31.37,"lat":60.83,"river":"","lake":"ladoga","basin":"Neva","status":"operational","validation":""}},{"type":"Feature","id":"hydroweb.244","geometry":{"type":"Point","coordinates":[-92.4,69.24]},"geometry_name":"the_geom","properties":{"name":"L_lady-melville","lon":-92.4,"lat":69.24,"river":"","lake":"lady-melville","basin":"LadyMelville","status":"research","validation":""}},{"type":"Feature","id":"hydroweb.245","geometry":{"type":"Point","coordinates":[-72.22,54.35]},"geometry_name":"the_geom","properties":{"name":"L_laforge-1","lon":-72.22,"lat":54.35,"river":"","lake":"laforge-1","basin":"Riviere-Baleine","status":"research","validation":""}},{"type":"Feature","id":"hydroweb.246","geometry":{"type":"Point","coordinates":[13.9,8.9]},"geometry_name":"the_geom","properties":{"name":"L_lagdo","lon":13.9,"lat":8.9,"river":"","lake":"lagdo","basin":"Niger","status":"operational","validation":""}},{"type":"Feature","id":"hydroweb.247","geometry":{"type":"Point","coordinates":[-51.36,-31.13]},"geometry_name":"the_geom","properties":{"name":"L_lagoa_do_patos","lon":-51.36,"lat":-31.13,"river":"","lake":"lagoa_do_patos","basin":"Brazilsoutheast","status":"operational","validation":""}},{"type":"Feature","id":"hydroweb.248","geometry":{"type":"Point","coordinates":[-73.18,53.99]},"geometry_name":"the_geom","properties":{"name":"L_la-grande-4","lon":-73.18,"lat":53.99,"river":"","lake":"la-grande-4","basin":"Riviere-Baleine","status":"research","validation":""}},{"type":"Feature","id":"hydroweb.249","geometry":{"type":"Point","coordinates":[103.41,16.78]},"geometry_name":"the_geom","properties":{"name":"L_lam-pao","lon":103.41,"lat":16.78,"river":"","lake":"lam-pao","basin":"Mekong","status":"research","validation":""}},{"type":"Feature","id":"hydroweb.250","geometry":{"type":"Point","coordinates":[81.24,30.65]},"geometry_name":"the_geom","properties":{"name":"L_langa-co","lon":81.24,"lat":30.65,"river":"","lake":"langa-co","basin":"Indus","status":"operational","validation":""}},{"type":"Feature","id":"hydroweb.251","geometry":{"type":"Point","coordinates":[38.75,7.62]},"geometry_name":"the_geom","properties":{"name":"L_langano","lon":38.75,"lat":7.62,"river":"","lake":"langano","basin":"Great Rift Valley","status":"operational","validation":""}},{"type":"Feature","id":"hydroweb.252","geometry":{"type":"Point","coordinates":[124.24,7.89]},"geometry_name":"the_geom","properties":{"name":"L_lano","lon":124.24,"lat":7.89,"river":"","lake":"lano","basin":"Lano","status":"operational","validation":""}},{"type":"Feature","id":"hydroweb.253","geometry":{"type":"Point","coordinates":[6.54,46.36]},"geometry_name":"the_geom","properties":{"name":"L_leman","lon":6.54,"lat":46.36,"river":"","lake":"leman","basin":"Rhone","status":"operational","validation":""}},{"type":"Feature","id":"hydroweb.254","geometry":{"type":"Point","coordinates":[-115.5,55.43]},"geometry_name":"the_geom","properties":{"name":"L_lesser_slave","lon":-115.5,"lat":55.43,"river":"","lake":"lesser_slave","basin":"MacKenzie River","status":"research","validation":""}},{"type":"Feature","id":"hydroweb.255","geometry":{"type":"Point","coordinates":[8.66,56.57]},"geometry_name":"the_geom","properties":{"name":"L_limfjorden","lon":8.66,"lat":56.57,"river":"","lake":"limfjorden","basin":"Limfjorden","status":"research","validation":""}},{"type":"Feature","id":"hydroweb.256","geometry":{"type":"Point","coordinates":[90.2,35.75]},"geometry_name":"the_geom","properties":{"name":"L_lixiodain-co","lon":90.2,"lat":35.75,"river":"","lake":"lixiodain-co","basin":"Mongolian","status":"operational","validation":""}},{"type":"Feature","id":"hydroweb.257","geometry":{"type":"Point","coordinates":[-72.82,-41.14]},"geometry_name":"the_geom","properties":{"name":"L_llanquihue","lon":-72.82,"lat":-41.14,"river":"","lake":"llanquihue","basin":"ChileSouth","status":"research","validation":""}},{"type":"Feature","id":"hydroweb.258","geometry":{"type":"Point","coordinates":[106.47,25.06]},"geometry_name":"the_geom","properties":{"name":"L_longtan","lon":106.47,"lat":25.06,"river":"","lake":"longtan","basin":"Xijiang","status":"research","validation":""}},{"type":"Feature","id":"hydroweb.259","geometry":{"type":"Point","coordinates":[100.71,36.03]},"geometry_name":"the_geom","properties":{"name":"L_longyangxia","lon":100.71,"lat":36.03,"river":"","lake":"longyangxia","basin":"Yellow","status":"research","validation":""}},{"type":"Feature","id":"hydroweb.260","geometry":{"type":"Point","coordinates":[8.45,46.99]},"geometry_name":"the_geom","properties":{"name":"L_lucerne","lon":8.45,"lat":46.99,"river":"","lake":"lucerne","basin":"Rhine","status":"research","validation":""}},{"type":"Feature","id":"hydroweb.261","geometry":{"type":"Point","coordinates":[81.65,34]},"geometry_name":"the_geom","properties":{"name":"L_lumajangdong-co","lon":81.65,"lat":34,"river":"","lake":"lumajangdong-co","basin":"Mongolian","status":"operational","validation":""}},{"type":"Feature","id":"hydroweb.262","geometry":{"type":"Point","coordinates":[81.96,34.44]},"geometry_name":"the_geom","properties":{"name":"L_luotuo","lon":81.96,"lat":34.44,"river":"","lake":"luotuo","basin":"Tarim","status":"operational","validation":""}},{"type":"Feature","id":"hydroweb.263","geometry":{"type":"Point","coordinates":[18.33,-2.11]},"geometry_name":"the_geom","properties":{"name":"L_mai-ndombe","lon":18.33,"lat":-2.11,"river":"","lake":"mai-ndombe","basin":"Congo","status":"operational","validation":""}},{"type":"Feature","id":"hydroweb.264","geometry":{"type":"Point","coordinates":[34.5,-12]},"geometry_name":"the_geom","properties":{"name":"L_malawi","lon":34.5,"lat":-12,"river":"","lake":"malawi","basin":"Zambezi","status":"operational","validation":""}},{"type":"Feature","id":"hydroweb.265","geometry":{"type":"Point","coordinates":[-93.55,17.11]},"geometry_name":"the_geom","properties":{"name":"L_malpasp","lon":-93.55,"lat":17.11,"river":"","lake":"malpasp","basin":"Grisalva","status":"research","validation":""}},{"type":"Feature","id":"hydroweb.266","geometry":{"type":"Point","coordinates":[-86.35,12.35]},"geometry_name":"the_geom","properties":{"name":"L_managua","lon":-86.35,"lat":12.35,"river":"","lake":"managua","basin":"San Juan","status":"research","validation":""}},{"type":"Feature","id":"hydroweb.267","geometry":{"type":"Point","coordinates":[85.91,45.79]},"geometry_name":"the_geom","properties":{"name":"L_manas","lon":85.91,"lat":45.79,"river":"","lake":"manas","basin":"Mongolian","status":"research","validation":""}},{"type":"Feature","id":"hydroweb.268","geometry":{"type":"Point","coordinates":[1.4,7.45]},"geometry_name":"the_geom","properties":{"name":"L_mangbeto","lon":1.4,"lat":7.45,"river":"","lake":"mangbeto","basin":"Mono","status":"operational","validation":""}},{"type":"Feature","id":"hydroweb.269","geometry":{"type":"Point","coordinates":[-98.77,50.98]},"geometry_name":"the_geom","properties":{"name":"L_manitoba","lon":-98.77,"lat":50.98,"river":"","lake":"manitoba","basin":"Nelson","status":"operational","validation":""}},{"type":"Feature","id":"hydroweb.270","geometry":{"type":"Point","coordinates":[-70.78,50.77]},"geometry_name":"the_geom","properties":{"name":"L_manouan","lon":-70.78,"lat":50.77,"river":"","lake":"manouan","basin":"Saguenay","status":"research","validation":""}},{"type":"Feature","id":"hydroweb.271","geometry":{"type":"Point","coordinates":[81.5,30.7]},"geometry_name":"the_geom","properties":{"name":"L_mapam-yamco","lon":81.5,"lat":30.7,"river":"","lake":"mapam-yamco","basin":"Indus","status":"research","validation":""}},{"type":"Feature","id":"hydroweb.272","geometry":{"type":"Point","coordinates":[-71.5,9.67]},"geometry_name":"the_geom","properties":{"name":"L_maracaibo","lon":-71.5,"lat":9.67,"river":"","lake":"maracaibo","basin":"Venezuela","status":"research","validation":""}},{"type":"Feature","id":"hydroweb.273","geometry":{"type":"Point","coordinates":[-117.91,63.33]},"geometry_name":"the_geom","properties":{"name":"L_martre","lon":-117.91,"lat":63.33,"river":"","lake":"martre","basin":"MacKenzie River","status":"research","validation":""}},{"type":"Feature","id":"hydroweb.274","geometry":{"type":"Point","coordinates":[-124.91,67.44]},"geometry_name":"the_geom","properties":{"name":"L_maunoir","lon":-124.91,"lat":67.44,"river":"","lake":"maunoir","basin":"Anderson River","status":"research","validation":""}},{"type":"Feature","id":"hydroweb.275","geometry":{"type":"Point","coordinates":[12.9,6.42]},"geometry_name":"the_geom","properties":{"name":"L_m-bakaou","lon":12.9,"lat":6.42,"river":"","lake":"m-bakaou","basin":"Sanaga","status":"research","validation":""}},{"type":"Feature","id":"hydroweb.276","geometry":{"type":"Point","coordinates":[-114.45,36.13]},"geometry_name":"the_geom","properties":{"name":"L_mead","lon":-114.45,"lat":36.13,"river":"","lake":"mead","basin":"Colorado","status":"research","validation":""}},{"type":"Feature","id":"hydroweb.277","geometry":{"type":"Point","coordinates":[82.32,34.2]},"geometry_name":"the_geom","properties":{"name":"L_memar","lon":82.32,"lat":34.2,"river":"","lake":"memar","basin":"Tarim","status":"operational","validation":""}},{"type":"Feature","id":"hydroweb.278","geometry":{"type":"Point","coordinates":[32.32,18.93]},"geometry_name":"the_geom","properties":{"name":"L_merowe","lon":32.32,"lat":18.93,"river":"","lake":"merowe","basin":"Nile","status":"research","validation":""}},{"type":"Feature","id":"hydroweb.279","geometry":{"type":"Point","coordinates":[-87,44]},"geometry_name":"the_geom","properties":{"name":"L_michigan","lon":-87,"lat":44,"river":"","lake":"michigan","basin":"St-Lawrence","status":"operational","validation":""}},{"type":"Feature","id":"hydroweb.280","geometry":{"type":"Point","coordinates":[90.33,33.45]},"geometry_name":"the_geom","properties":{"name":"L_migriggyangzham","lon":90.33,"lat":33.45,"river":"","lake":"migriggyangzham","basin":"Mongolian","status":"operational","validation":""}},{"type":"Feature","id":"hydroweb.281","geometry":{"type":"Point","coordinates":[-93.64,46.24]},"geometry_name":"the_geom","properties":{"name":"L_mille","lon":-93.64,"lat":46.24,"river":"","lake":"mille","basin":"Mississippi","status":"research","validation":""}},{"type":"Feature","id":"hydroweb.282","geometry":{"type":"Point","coordinates":[-118.14,61.55]},"geometry_name":"the_geom","properties":{"name":"L_mills","lon":-118.14,"lat":61.55,"river":"","lake":"mills","basin":"MacKenzie River","status":"research","validation":""}},{"type":"Feature","id":"hydroweb.283","geometry":{"type":"Point","coordinates":[46.8,40.9]},"geometry_name":"the_geom","properties":{"name":"L_mingacevir","lon":46.8,"lat":40.9,"river":"","lake":"mingacevir","basin":"Kura","status":"operational","validation":""}},{"type":"Feature","id":"hydroweb.284","geometry":{"type":"Point","coordinates":[14.18,56.67]},"geometry_name":"the_geom","properties":{"name":"L_moeckeln","lon":14.18,"lat":56.67,"river":"","lake":"moeckeln","basin":"Sweeden","status":"research","validation":""}},{"type":"Feature","id":"hydroweb.285","geometry":{"type":"Point","coordinates":[-96.82,54.22]},"geometry_name":"the_geom","properties":{"name":"L_molson","lon":-96.82,"lat":54.22,"river":"","lake":"molson","basin":"Hayes","status":"research","validation":""}},{"type":"Feature","id":"hydroweb.286","geometry":{"type":"Point","coordinates":[-119,38]},"geometry_name":"the_geom","properties":{"name":"L_mono","lon":-119,"lat":38,"river":"","lake":"mono","basin":"Lake Mono","status":"operational","validation":""}},{"type":"Feature","id":"hydroweb.287","geometry":{"type":"Point","coordinates":[42.9,36.68]},"geometry_name":"the_geom","properties":{"name":"L_mossoul","lon":42.9,"lat":36.68,"river":"","lake":"mossoul","basin":"Tigris-Euphrates","status":"operational","validation":""}},{"type":"Feature","id":"hydroweb.288","geometry":{"type":"Point","coordinates":[35.81,-7.02]},"geometry_name":"the_geom","properties":{"name":"L_m-tera","lon":35.81,"lat":-7.02,"river":"","lake":"m-tera","basin":"Rufiji","status":"research","validation":""}},{"type":"Feature","id":"hydroweb.289","geometry":{"type":"Point","coordinates":[-84.54,45.5]},"geometry_name":"the_geom","properties":{"name":"L_mullet","lon":-84.54,"lat":45.5,"river":"","lake":"mullet","basin":"St-Lawrence","status":"operational","validation":""}},{"type":"Feature","id":"hydroweb.290","geometry":{"type":"Point","coordinates":[28.74,-8.98]},"geometry_name":"the_geom","properties":{"name":"L_mweru","lon":28.74,"lat":-8.98,"river":"","lake":"mweru","basin":"Congo","status":"operational","validation":""}},{"type":"Feature","id":"hydroweb.291","geometry":{"type":"Point","coordinates":[-71.4,-41.06]},"geometry_name":"the_geom","properties":{"name":"L_nahuelhuapi","lon":-71.4,"lat":-41.06,"river":"","lake":"nahuelhuapi","basin":"Negro2","status":"research","validation":""}},{"type":"Feature","id":"hydroweb.292","geometry":{"type":"Point","coordinates":[36.35,-0.76]},"geometry_name":"the_geom","properties":{"name":"L_naivasha","lon":36.35,"lat":-0.76,"river":"","lake":"naivasha","basin":"Greatriftvalley","status":"operational","validation":""}},{"type":"Feature","id":"hydroweb.293","geometry":{"type":"Point","coordinates":[90.62,30.71]},"geometry_name":"the_geom","properties":{"name":"L_namco","lon":90.62,"lat":30.71,"river":"","lake":"namco","basin":"Mongolian","status":"operational","validation":""}},{"type":"Feature","id":"hydroweb.294","geometry":{"type":"Point","coordinates":[102.63,18.61]},"geometry_name":"the_geom","properties":{"name":"L_namngum","lon":102.63,"lat":18.61,"river":"","lake":"namngum","basin":"Mekong","status":"operational","validation":""}},{"type":"Feature","id":"hydroweb.295","geometry":{"type":"Point","coordinates":[32.57,22.8]},"geometry_name":"the_geom","properties":{"name":"L_nasser","lon":32.57,"lat":22.8,"river":"","lake":"nasser","basin":"Nile","status":"operational","validation":""}},{"type":"Feature","id":"hydroweb.296","geometry":{"type":"Point","coordinates":[-70.17,66.53]},"geometry_name":"the_geom","properties":{"name":"L_nettiling","lon":-70.17,"lat":66.53,"river":"","lake":"nettiling","basin":"HudsonBay","status":"research","validation":""}},{"type":"Feature","id":"hydroweb.297","geometry":{"type":"Point","coordinates":[6.84,46.9]},"geometry_name":"the_geom","properties":{"name":"L_neuchatel","lon":6.84,"lat":46.9,"river":"","lake":"neuchatel","basin":"Rhine","status":"research","validation":""}},{"type":"Feature","id":"hydroweb.298","geometry":{"type":"Point","coordinates":[-93.65,17.16]},"geometry_name":"the_geom","properties":{"name":"L_nezahualcoyoti","lon":-93.65,"lat":17.16,"river":"","lake":"nezahualcoyoti","basin":"Grisalva","status":"operational","validation":""}},{"type":"Feature","id":"hydroweb.299","geometry":{"type":"Point","coordinates":[83.05,31.56]},"geometry_name":"the_geom","properties":{"name":"L_ngangla-ringco","lon":83.05,"lat":31.56,"river":"","lake":"ngangla-ringco","basin":"Mongolian","status":"research","validation":""}},{"type":"Feature","id":"hydroweb.300","geometry":{"type":"Point","coordinates":[87.1,31]},"geometry_name":"the_geom","properties":{"name":"L_ngangze","lon":87.1,"lat":31,"river":"","lake":"ngangze","basin":"Mongolian","status":"operational","validation":""}},{"type":"Feature","id":"hydroweb.301","geometry":{"type":"Point","coordinates":[97.7,34.9]},"geometry_name":"the_geom","properties":{"name":"L_ngoring-co","lon":97.7,"lat":34.9,"river":"","lake":"ngoring-co","basin":"Yellow","status":"operational","validation":""}},{"type":"Feature","id":"hydroweb.302","geometry":{"type":"Point","coordinates":[-85.5,11.5]},"geometry_name":"the_geom","properties":{"name":"L_nicaragua","lon":-85.5,"lat":11.5,"river":"","lake":"nicaragua","basin":"San Juan","status":"operational","validation":""}},{"type":"Feature","id":"hydroweb.303","geometry":{"type":"Point","coordinates":[-88.55,49.8]},"geometry_name":"the_geom","properties":{"name":"L_nipigon","lon":-88.55,"lat":49.8,"river":"","lake":"nipigon","basin":"St-Lawrence","status":"research","validation":""}},{"type":"Feature","id":"hydroweb.304","geometry":{"type":"Point","coordinates":[-79.94,46.24]},"geometry_name":"the_geom","properties":{"name":"L_nipissing","lon":-79.94,"lat":46.24,"river":"","lake":"nipissing","basin":"St-Lawrence","status":"operational","validation":""}},{"type":"Feature","id":"hydroweb.305","geometry":{"type":"Point","coordinates":[82.48,54.58]},"geometry_name":"the_geom","properties":{"name":"L_novosibirskoye","lon":82.48,"lat":54.58,"river":"","lake":"novosibirskoye","basin":"Ob","status":"research","validation":""}},{"type":"Feature","id":"hydroweb.306","geometry":{"type":"Point","coordinates":[-99.58,60.4]},"geometry_name":"the_geom","properties":{"name":"L_nueltin","lon":-99.58,"lat":60.4,"river":"","lake":"nueltin","basin":"Thlewiaza","status":"research","validation":""}},{"type":"Feature","id":"hydroweb.307","geometry":{"type":"Point","coordinates":[31.9,64.45]},"geometry_name":"the_geom","properties":{"name":"L_nyuk","lon":31.9,"lat":64.45,"river":"","lake":"nyuk","basin":"Kem","status":"research","validation":""}},{"type":"Feature","id":"hydroweb.308","geometry":{"type":"Point","coordinates":[-100.34,45.02]},"geometry_name":"the_geom","properties":{"name":"L_oahe","lon":-100.34,"lat":45.02,"river":"","lake":"oahe","basin":"Mississippi","status":"operational","validation":""}},{"type":"Feature","id":"hydroweb.309","geometry":{"type":"Point","coordinates":[-119.5,49.85]},"geometry_name":"the_geom","properties":{"name":"L_okanagan","lon":-119.5,"lat":49.85,"river":"","lake":"okanagan","basin":"Columbia","status":"research","validation":""}},{"type":"Feature","id":"hydroweb.310","geometry":{"type":"Point","coordinates":[-80.78,26.92]},"geometry_name":"the_geom","properties":{"name":"L_okeechobee","lon":-80.78,"lat":26.92,"river":"","lake":"okeechobee","basin":"Okeechobee","status":"research","validation":""}},{"type":"Feature","id":"hydroweb.311","geometry":{"type":"Point","coordinates":[-105.96,50.09]},"geometry_name":"the_geom","properties":{"name":"L_old-wives","lon":-105.96,"lat":50.09,"river":"","lake":"old-wives","basin":"Old-Wives","status":"operational","validation":""}},{"type":"Feature","id":"hydroweb.312","geometry":{"type":"Point","coordinates":[35.6,61.6]},"geometry_name":"the_geom","properties":{"name":"L_onega","lon":35.6,"lat":61.6,"river":"","lake":"onega","basin":"Neva","status":"operational","validation":""}},{"type":"Feature","id":"hydroweb.313","geometry":{"type":"Point","coordinates":[-78.03,43.7]},"geometry_name":"the_geom","properties":{"name":"L_ontario","lon":-78.03,"lat":43.7,"river":"","lake":"ontario","basin":"St-Lawrence","status":"operational","validation":""}},{"type":"Feature","id":"hydroweb.314","geometry":{"type":"Point","coordinates":[-76.3,52.5]},"geometry_name":"the_geom","properties":{"name":"L_opinac","lon":-76.3,"lat":52.5,"river":"","lake":"opinac","basin":"Opinaca","status":"research","validation":""}},{"type":"Feature","id":"hydroweb.315","geometry":{"type":"Point","coordinates":[81.04,34.55]},"geometry_name":"the_geom","properties":{"name":"L_orba-co","lon":81.04,"lat":34.55,"river":"","lake":"orba-co","basin":"Mongolian","status":"research","validation":""}},{"type":"Feature","id":"hydroweb.316","geometry":{"type":"Point","coordinates":[27,64.4]},"geometry_name":"the_geom","properties":{"name":"L_oulu","lon":27,"lat":64.4,"river":"","lake":"oulu","basin":"Oulujoki","status":"research","validation":""}},{"type":"Feature","id":"hydroweb.317","geometry":{"type":"Point","coordinates":[-71.58,-43.93]},"geometry_name":"the_geom","properties":{"name":"L_palena","lon":-71.58,"lat":-43.93,"river":"","lake":"palena","basin":"ChileSouth","status":"research","validation":""}},{"type":"Feature","id":"hydroweb.318","geometry":{"type":"Point","coordinates":[27.5,58.44]},"geometry_name":"the_geom","properties":{"name":"L_peipus","lon":27.5,"lat":58.44,"river":"","lake":"peipus","basin":"Narva","status":"operational","validation":""}},{"type":"Feature","id":"hydroweb.319","geometry":{"type":"Point","coordinates":[-68,-38.7]},"geometry_name":"the_geom","properties":{"name":"L_pelegrini","lon":-68,"lat":-38.7,"river":"","lake":"pelegrini","basin":"Negro2","status":"research","validation":""}},{"type":"Feature","id":"hydroweb.320","geometry":{"type":"Point","coordinates":[-67,-18.8]},"geometry_name":"the_geom","properties":{"name":"L_poopo","lon":-67,"lat":-18.8,"river":"","lake":"poopo","basin":"Desaguadero","status":"research","validation":""}},{"type":"Feature","id":"hydroweb.321","geometry":{"type":"Point","coordinates":[-111.8,37.07]},"geometry_name":"the_geom","properties":{"name":"L_powell","lon":-111.8,"lat":37.07,"river":"","lake":"powell","basin":"Colorado","status":"research","validation":""}},{"type":"Feature","id":"hydroweb.322","geometry":{"type":"Point","coordinates":[116.28,29.08]},"geometry_name":"the_geom","properties":{"name":"L_poyang","lon":116.28,"lat":29.08,"river":"","lake":"poyang","basin":"Yangtze","status":"research","validation":""}},{"type":"Feature","id":"hydroweb.323","geometry":{"type":"Point","coordinates":[21.04,40.88]},"geometry_name":"the_geom","properties":{"name":"L_prespa","lon":21.04,"lat":40.88,"river":"","lake":"prespa","basin":"Prespa","status":"operational","validation":""}},{"type":"Feature","id":"hydroweb.324","geometry":{"type":"Point","coordinates":[170.17,-44.04]},"geometry_name":"the_geom","properties":{"name":"L_pukaki","lon":170.17,"lat":-44.04,"river":"","lake":"pukaki","basin":"Pukaki","status":"operational","validation":""}},{"type":"Feature","id":"hydroweb.325","geometry":{"type":"Point","coordinates":[90.96,31.45]},"geometry_name":"the_geom","properties":{"name":"L_pung-co","lon":90.96,"lat":31.45,"river":"","lake":"pung-co","basin":"Mongolian","status":"research","validation":""}},{"type":"Feature","id":"hydroweb.326","geometry":{"type":"Point","coordinates":[31,66.05]},"geometry_name":"the_geom","properties":{"name":"L_pyaozero","lon":31,"lat":66.05,"river":"","lake":"pyaozero","basin":"Kem","status":"operational","validation":""}},{"type":"Feature","id":"hydroweb.327","geometry":{"type":"Point","coordinates":[42.3,34.31]},"geometry_name":"the_geom","properties":{"name":"L_qadisiyah","lon":42.3,"lat":34.31,"river":"","lake":"qadisiyah","basin":"Tigris-Euphrates","status":"research","validation":""}},{"type":"Feature","id":"hydroweb.328","geometry":{"type":"Point","coordinates":[-72.4,-40.2]},"geometry_name":"the_geom","properties":{"name":"L_ranco","lon":-72.4,"lat":-40.2,"river":"","lake":"ranco","basin":"Chilesouth","status":"operational","validation":""}},{"type":"Feature","id":"hydroweb.329","geometry":{"type":"Point","coordinates":[43.59,32.75]},"geometry_name":"the_geom","properties":{"name":"L_razazah","lon":43.59,"lat":32.75,"river":"","lake":"razazah","basin":"tigris-euphrates","status":"research","validation":""}},{"type":"Feature","id":"hydroweb.330","geometry":{"type":"Point","coordinates":[28.97,44.83]},"geometry_name":"the_geom","properties":{"name":"L_razelm","lon":28.97,"lat":44.83,"river":"","lake":"razelm","basin":"Danube","status":"research","validation":""}},{"type":"Feature","id":"hydroweb.331","geometry":{"type":"Point","coordinates":[34.38,11.62]},"geometry_name":"the_geom","properties":{"name":"L_roseires","lon":34.38,"lat":11.62,"river":"","lake":"roseires","basin":"Nile","status":"operational","validation":""}},{"type":"Feature","id":"hydroweb.332","geometry":{"type":"Point","coordinates":[32.42,-8]},"geometry_name":"the_geom","properties":{"name":"L_rukwa","lon":32.42,"lat":-8,"river":"","lake":"rukwa","basin":"Rukwa","status":"operational","validation":""}},{"type":"Feature","id":"hydroweb.333","geometry":{"type":"Point","coordinates":[-72.43,-40.83]},"geometry_name":"the_geom","properties":{"name":"L_rupanco","lon":-72.43,"lat":-40.83,"river":"","lake":"rupanco","basin":"ChileSouth","status":"research","validation":""}},{"type":"Feature","id":"hydroweb.334","geometry":{"type":"Point","coordinates":[38.42,58.44]},"geometry_name":"the_geom","properties":{"name":"L_rybinskoye","lon":38.42,"lat":58.44,"river":"","lake":"rybinskoye","basin":"Volga","status":"operational","validation":""}},{"type":"Feature","id":"hydroweb.335","geometry":{"type":"Point","coordinates":[-72,48.56]},"geometry_name":"the_geom","properties":{"name":"L_saint_jean","lon":-72,"lat":48.56,"river":"","lake":"saint_jean","basin":"Saguenay","status":"operational","validation":""}},{"type":"Feature","id":"hydroweb.336","geometry":{"type":"Point","coordinates":[-102,47.6]},"geometry_name":"the_geom","properties":{"name":"L_sakakawea","lon":-102,"lat":47.6,"river":"","lake":"sakakawea","basin":"Mississippi","status":"operational","validation":""}},{"type":"Feature","id":"hydroweb.337","geometry":{"type":"Point","coordinates":[38.47,38.48]},"geometry_name":"the_geom","properties":{"name":"L_saksak","lon":38.47,"lat":38.48,"river":"","lake":"saksak","basin":"Tigris-Euphrates","status":"operational","validation":""}},{"type":"Feature","id":"hydroweb.338","geometry":{"type":"Point","coordinates":[-115.8,33.3]},"geometry_name":"the_geom","properties":{"name":"L_salton","lon":-115.8,"lat":33.3,"river":"","lake":"salton","basin":"USA Internal Bassin","status":"research","validation":""}},{"type":"Feature","id":"hydroweb.339","geometry":{"type":"Point","coordinates":[-93,53]},"geometry_name":"the_geom","properties":{"name":"L_sandy","lon":-93,"lat":53,"river":"","lake":"sandy","basin":"Severn","status":"research","validation":""}},{"type":"Feature","id":"hydroweb.340","geometry":{"type":"Point","coordinates":[-72.65,-48.86]},"geometry_name":"the_geom","properties":{"name":"L_san_martin","lon":-72.65,"lat":-48.86,"river":"","lake":"san_martin","basin":"Mayer","status":"operational","validation":""}},{"type":"Feature","id":"hydroweb.341","geometry":{"type":"Point","coordinates":[48.15,52.45]},"geometry_name":"the_geom","properties":{"name":"L_saratovskoye","lon":48.15,"lat":52.45,"river":"","lake":"saratovskoye","basin":"Volga","status":"operational","validation":""}},{"type":"Feature","id":"hydroweb.342","geometry":{"type":"Point","coordinates":[78.55,55]},"geometry_name":"the_geom","properties":{"name":"L_sartlan","lon":78.55,"lat":55,"river":"","lake":"sartlan","basin":"Tchany","status":"research","validation":""}},{"type":"Feature","id":"hydroweb.343","geometry":{"type":"Point","coordinates":[57.4,41.9]},"geometry_name":"the_geom","properties":{"name":"L_sarykamish","lon":57.4,"lat":41.9,"river":"","lake":"sarykamish","basin":"Amudarya","status":"operational","validation":""}},{"type":"Feature","id":"hydroweb.344","geometry":{"type":"Point","coordinates":[81,46.58]},"geometry_name":"the_geom","properties":{"name":"L_sasykkol","lon":81,"lat":46.58,"river":"","lake":"sasykkol","basin":"Mongolian","status":"operational","validation":""}},{"type":"Feature","id":"hydroweb.345","geometry":{"type":"Point","coordinates":[83.93,48]},"geometry_name":"the_geom","properties":{"name":"L_saysan","lon":83.93,"lat":48,"river":"","lake":"saysan","basin":"Ob","status":"operational","validation":""}},{"type":"Feature","id":"hydroweb.346","geometry":{"type":"Point","coordinates":[33.6,63.3]},"geometry_name":"the_geom","properties":{"name":"L_segozerskoye","lon":33.6,"lat":63.3,"river":"","lake":"segozerskoye","basin":"Nyzhny Vyg","status":"operational","validation":""}},{"type":"Feature","id":"hydroweb.347","geometry":{"type":"Point","coordinates":[88.23,32]},"geometry_name":"the_geom","properties":{"name":"L_serbug","lon":88.23,"lat":32,"river":"","lake":"serbug","basin":"Serbug","status":"operational","validation":""}},{"type":"Feature","id":"hydroweb.348","geometry":{"type":"Point","coordinates":[45.4,40.28]},"geometry_name":"the_geom","properties":{"name":"L_sevan","lon":45.4,"lat":40.28,"river":"","lake":"sevan","basin":"Ozero Sevan","status":"operational","validation":""}},{"type":"Feature","id":"hydroweb.349","geometry":{"type":"Point","coordinates":[38.51,7.47]},"geometry_name":"the_geom","properties":{"name":"L_shala","lon":38.51,"lat":7.47,"river":"","lake":"shala","basin":"GreatRiftValley","status":"research","validation":""}},{"type":"Feature","id":"hydroweb.350","geometry":{"type":"Point","coordinates":[6.88,10]},"geometry_name":"the_geom","properties":{"name":"L_shiroro","lon":6.88,"lat":10,"river":"","lake":"shiroro","basin":"Niger","status":"operational","validation":""}},{"type":"Feature","id":"hydroweb.351","geometry":{"type":"Point","coordinates":[-41.67,-9.73]},"geometry_name":"the_geom","properties":{"name":"L_sobradino","lon":-41.67,"lat":-9.73,"river":"","lake":"sobradino","basin":"Sao-Francisco","status":"operational","validation":""}},{"type":"Feature","id":"hydroweb.352","geometry":{"type":"Point","coordinates":[126.93,43.6]},"geometry_name":"the_geom","properties":{"name":"L_soungari","lon":126.93,"lat":43.6,"river":"","lake":"soungari","basin":"Amur","status":"research","validation":""}},{"type":"Feature","id":"hydroweb.353","geometry":{"type":"Point","coordinates":[31.55,65.1]},"geometry_name":"the_geom","properties":{"name":"L_srednee-kuyto","lon":31.55,"lat":65.1,"river":"","lake":"srednee-kuyto","basin":"Kem","status":"research","validation":""}},{"type":"Feature","id":"hydroweb.354","geometry":{"type":"Point","coordinates":[78.58,16.04]},"geometry_name":"the_geom","properties":{"name":"L_srisailam","lon":78.58,"lat":16.04,"river":"","lake":"srisailam","basin":"Krishna","status":"operational","validation":""}},{"type":"Feature","id":"hydroweb.355","geometry":{"type":"Point","coordinates":[29.02,-28.45]},"geometry_name":"the_geom","properties":{"name":"L_sterkfontein","lon":29.02,"lat":-28.45,"river":"","lake":"sterkfontein","basin":"Orange","status":"research","validation":""}},{"type":"Feature","id":"hydroweb.356","geometry":{"type":"Point","coordinates":[-71.18,-48.41]},"geometry_name":"the_geom","properties":{"name":"L_strobel","lon":-71.18,"lat":-48.41,"river":"","lake":"strobel","basin":"strobel","status":"research","validation":""}},{"type":"Feature","id":"hydroweb.357","geometry":{"type":"Point","coordinates":[-87.5,47.5]},"geometry_name":"the_geom","properties":{"name":"L_superior","lon":-87.5,"lat":47.5,"river":"","lake":"superior","basin":"St-Lawrence","status":"operational","validation":""}},{"type":"Feature","id":"hydroweb.358","geometry":{"type":"Point","coordinates":[-100.74,52.49]},"geometry_name":"the_geom","properties":{"name":"L_swan","lon":-100.74,"lat":52.49,"river":"","lake":"swan","basin":"Nelson","status":"operational","validation":""}},{"type":"Feature","id":"hydroweb.359","geometry":{"type":"Point","coordinates":[33.2,61.9]},"geometry_name":"the_geom","properties":{"name":"L_syamozero","lon":33.2,"lat":61.9,"river":"","lake":"syamozero","basin":"Neva","status":"research","validation":""}},{"type":"Feature","id":"hydroweb.360","geometry":{"type":"Point","coordinates":[34.99,45.73]},"geometry_name":"the_geom","properties":{"name":"L_syvash","lon":34.99,"lat":45.73,"river":"","lake":"syvash","basin":"Syvash","status":"research","validation":""}},{"type":"Feature","id":"hydroweb.361","geometry":{"type":"Point","coordinates":[120.16,31.21]},"geometry_name":"the_geom","properties":{"name":"L_taihu","lon":120.16,"lat":31.21,"river":"","lake":"taihu","basin":"Yangtze","status":"research","validation":""}},{"type":"Feature","id":"hydroweb.362","geometry":{"type":"Point","coordinates":[37.3,12.03]},"geometry_name":"the_geom","properties":{"name":"L_tana","lon":37.3,"lat":12.03,"river":"","lake":"tana","basin":"Nile","status":"operational","validation":""}},{"type":"Feature","id":"hydroweb.363","geometry":{"type":"Point","coordinates":[29.5,-6.08]},"geometry_name":"the_geom","properties":{"name":"L_tanganika","lon":29.5,"lat":-6.08,"river":"","lake":"tanganika","basin":"Congo","status":"operational","validation":""}},{"type":"Feature","id":"hydroweb.364","geometry":{"type":"Point","coordinates":[86.55,31]},"geometry_name":"the_geom","properties":{"name":"L_tangra-yumco","lon":86.55,"lat":31,"river":"","lake":"tangra-yumco","basin":"Mongolian","status":"operational","validation":""}},{"type":"Feature","id":"hydroweb.365","geometry":{"type":"Point","coordinates":[84.12,31.12]},"geometry_name":"the_geom","properties":{"name":"L_taro-co","lon":84.12,"lat":31.12,"river":"","lake":"taro-co","basin":"Mongolian","status":"research","validation":""}},{"type":"Feature","id":"hydroweb.366","geometry":{"type":"Point","coordinates":[14.17,13.33]},"geometry_name":"the_geom","properties":{"name":"L_tchad","lon":14.17,"lat":13.33,"river":"","lake":"tchad","basin":"Lake-Chad","status":"operational","validation":""}},{"type":"Feature","id":"hydroweb.367","geometry":{"type":"Point","coordinates":[77.6,54.85]},"geometry_name":"the_geom","properties":{"name":"L_tchany","lon":77.6,"lat":54.85,"river":"","lake":"tchany","basin":"Tchany","status":"research","validation":""}},{"type":"Feature","id":"hydroweb.368","geometry":{"type":"Point","coordinates":[92.22,34.81]},"geometry_name":"the_geom","properties":{"name":"L_telashi","lon":92.22,"lat":34.81,"river":"","lake":"telashi","basin":"Yangtze","status":"operational","validation":""}},{"type":"Feature","id":"hydroweb.369","geometry":{"type":"Point","coordinates":[87.67,51.57]},"geometry_name":"the_geom","properties":{"name":"L_teletskoye","lon":87.67,"lat":51.57,"river":"","lake":"teletskoye","basin":"Ob","status":"operational","validation":""}},{"type":"Feature","id":"hydroweb.370","geometry":{"type":"Point","coordinates":[97.32,48.83]},"geometry_name":"the_geom","properties":{"name":"L_telmen","lon":97.32,"lat":48.83,"river":"","lake":"telmen","basin":"Yenisei","status":"operational","validation":""}},{"type":"Feature","id":"hydroweb.371","geometry":{"type":"Point","coordinates":[69,50.45]},"geometry_name":"the_geom","properties":{"name":"L_tengiz","lon":69,"lat":50.45,"river":"","lake":"tengiz","basin":"Tengiz","status":"operational","validation":""}},{"type":"Feature","id":"hydroweb.372","geometry":{"type":"Point","coordinates":[43.29,33.9]},"geometry_name":"the_geom","properties":{"name":"L_tharthar","lon":43.29,"lat":33.9,"river":"","lake":"tharthar","basin":"Tigris-Euphrates","status":"operational","validation":""}},{"type":"Feature","id":"hydroweb.373","geometry":{"type":"Point","coordinates":[-69.57,-15.62]},"geometry_name":"the_geom","properties":{"name":"L_titicaca","lon":-69.57,"lat":-15.62,"river":"","lake":"titicaca","basin":"Desaguadero","status":"operational","validation":""}},{"type":"Feature","id":"hydroweb.374","geometry":{"type":"Point","coordinates":[-72.3,-41.1]},"geometry_name":"the_geom","properties":{"name":"L_todos_los_santos","lon":-72.3,"lat":-41.1,"river":"","lake":"todos_los_santos","basin":"Chilesouth","status":"operational","validation":""}},{"type":"Feature","id":"hydroweb.375","geometry":{"type":"Point","coordinates":[72.83,41.78]},"geometry_name":"the_geom","properties":{"name":"L_toktogul","lon":72.83,"lat":41.78,"river":"","lake":"toktogul","basin":"Aral-Drainage","status":"operational","validation":""}},{"type":"Feature","id":"hydroweb.376","geometry":{"type":"Point","coordinates":[104.08,12.9]},